id;name;source_id;node_id;lat;long;country_code;comment;param;uncertainty;method;tags
INET_BP_0;Almeria;['INET_BP_0'];['INET_N_38'];36.7348;-2.3036;ES;None;{'end_year': 2050, 'pipe_name': None, 'start_year': 1983};{'end_year': 20, 'pipe_name': None, 'start_year': 20};{'end_year': 'make_Attrib(const)', 'pipe_name': None, 'start_year': 'make_Attrib(const)'};{}
INET_BP_1;Alveringem;['INET_BP_1'];['INET_N_1146'];50.926317;2.315596;BE;None;{'end_year': 2050, 'pipe_name': 'Alveringem-Maldegem pipeline', 'start_year': 1983};{'end_year': 20, 'pipe_name': 0, 'start_year': 20};{'end_year': 'make_Attrib(const)', 'pipe_name': 'raw', 'start_year': 'make_Attrib(const)'};{}
INET_BP_2;Arnoldstein;['INET_BP_2'];['INET_N_76'];46.5499903;13.7057619;AT;None;{'end_year': 2050, 'pipe_name': 'medgaz', 'start_year': 1983};{'end_year': 20, 'pipe_name': 0, 'start_year': 20};{'end_year': 'make_Attrib(const)', 'pipe_name': 'raw', 'start_year': 'make_Attrib(const)'};{}
INET_BP_3;Backi Breg;['INET_BP_3'];['INET_N_1387'];45.78;19.12;RS;None;{'end_year': 2050, 'pipe_name': None, 'start_year': 1983};{'end_year': 20, 'pipe_name': None, 'start_year': 20};{'end_year': 'make_Attrib(const)', 'pipe_name': None, 'start_year': 'make_Attrib(const)'};{}
INET_BP_4;Badajoz;['INET_BP_4'];['INET_N_108'];38.87665;-6.9714;ES;None;{'end_year': 2050, 'pipe_name': None, 'start_year': 1983};{'end_year': 20, 'pipe_name': None, 'start_year': 20};{'end_year': 'make_Attrib(const)', 'pipe_name': None, 'start_year': 'make_Attrib(const)'};{}
INET_BP_5;Balassagyarmat;['INET_BP_5'];['INET_N_1561'];48.2023;19.461;UA;None;{'end_year': 2050, 'pipe_name': 'Slovak-Hungarian Gas Interconnector', 'start_year': 1983};{'end_year': 20, 'pipe_name': 0, 'start_year': 20};{'end_year': 'make_Attrib(const)', 'pipe_name': 'raw', 'start_year': 'make_Attrib(const)'};{}
INET_BP_6;Balgzand;['INET_BP_6'];['INET_N_65'];52.86;4.822;NL;None;{'end_year': 2050, 'pipe_name': None, 'start_year': 1983};{'end_year': 20, 'pipe_name': None, 'start_year': 20};{'end_year': 'make_Attrib(const)', 'pipe_name': None, 'start_year': 'make_Attrib(const)'};{}
INET_BP_7;Ballylumford;['INET_BP_7'];['INET_N_120'];54.84019;-5.788932;GB;None;{'end_year': 2050, 'pipe_name': None, 'start_year': 1983};{'end_year': 20, 'pipe_name': None, 'start_year': 20};{'end_year': 'make_Attrib(const)', 'pipe_name': None, 'start_year': 'make_Attrib(const)'};{}
INET_BP_8;Basel;['INET_BP_8'];['INET_N_1249'];47.481;7.457;CH;None;{'end_year': 2050, 'pipe_name': None, 'start_year': 1983};{'end_year': 20, 'pipe_name': None, 'start_year': 20};{'end_year': 'make_Attrib(const)', 'pipe_name': None, 'start_year': 'make_Attrib(const)'};{}
INET_BP_9;Baumgarten;['INET_BP_9'];['INET_N_138'];48.316295;16.875328;AT;None;{'end_year': 2050, 'pipe_name': 'WAG', 'start_year': 1983};{'end_year': 20, 'pipe_name': 0, 'start_year': 20};{'end_year': 'make_Attrib(const)', 'pipe_name': 'raw', 'start_year': 'make_Attrib(const)'};{}
INET_BP_10;Beregdaroc;['INET_BP_10'];['INET_N_151'];48.198510799999994;22.5320069;HU;None;{'end_year': 2050, 'pipe_name': None, 'start_year': 1983};{'end_year': 20, 'pipe_name': None, 'start_year': 20};{'end_year': 'make_Attrib(const)', 'pipe_name': None, 'start_year': 'make_Attrib(const)'};{}
INET_BP_11;Bibesti;['INET_BP_11'];['INET_N_167'];44.7815366;23.4907078;RO;None;{'end_year': 2050, 'pipe_name': None, 'start_year': 1983};{'end_year': 20, 'pipe_name': None, 'start_year': 20};{'end_year': 'make_Attrib(const)', 'pipe_name': None, 'start_year': 'make_Attrib(const)'};{}
INET_BP_12;Biriatou;['INET_BP_12'];['INET_N_174'];43.333203999999995;-1.743022;FR;None;{'end_year': 2050, 'pipe_name': None, 'start_year': 1983};{'end_year': 20, 'pipe_name': None, 'start_year': 20};{'end_year': 'make_Attrib(const)', 'pipe_name': None, 'start_year': 'make_Attrib(const)'};{}
INET_BP_13;Bocholtz;['INET_BP_13'];['INET_N_186'];50.817365;6.021767;NL;None;{'end_year': 2050, 'pipe_name': 'TENP', 'start_year': 1983};{'end_year': 20, 'pipe_name': 0, 'start_year': 20};{'end_year': 'make_Attrib(const)', 'pipe_name': 'raw', 'start_year': 'make_Attrib(const)'};{}
INET_BP_14;Brandov;['INET_BP_14'];['INET_N_209'];50.635;13.39;CZ;None;{'end_year': 2050, 'pipe_name': None, 'start_year': 1983};{'end_year': 20, 'pipe_name': None, 'start_year': 20};{'end_year': 'make_Attrib(const)', 'pipe_name': None, 'start_year': 'make_Attrib(const)'};{}
INET_BP_15;Brighthouse;['INET_BP_15'];['INET_N_222'];54.78735;-4.1291199999999995;GB;None;{'end_year': 2050, 'pipe_name': None, 'start_year': 1983};{'end_year': 20, 'pipe_name': None, 'start_year': 20};{'end_year': 'make_Attrib(const)', 'pipe_name': None, 'start_year': 'make_Attrib(const)'};{}
INET_BP_16;Budince;['INET_BP_16'];['INET_N_1560'];48.552002;22.121625;SI;None;{'end_year': 2050, 'pipe_name': 'Vojany-U?horod pipeline', 'start_year': 1983};{'end_year': 20, 'pipe_name': 0, 'start_year': 20};{'end_year': 'make_Attrib(const)', 'pipe_name': 'raw', 'start_year': 'make_Attrib(const)'};{}
INET_BP_17;Burghausen;['INET_BP_17'];['INET_N_241'];48.1835;12.8531;DE;None;{'end_year': 2050, 'pipe_name': 'MONACO', 'start_year': 1983};{'end_year': 20, 'pipe_name': 0, 'start_year': 20};{'end_year': 'make_Attrib(const)', 'pipe_name': 'raw', 'start_year': 'make_Attrib(const)'};{}
INET_BP_18;Campo Maior;['INET_BP_18'];['INET_N_250'];38.982;-7.059;PT;None;{'end_year': 2050, 'pipe_name': None, 'start_year': 1983};{'end_year': 20, 'pipe_name': None, 'start_year': 20};{'end_year': 'make_Attrib(const)', 'pipe_name': None, 'start_year': 'make_Attrib(const)'};{}
INET_BP_19;Cersak;['INET_BP_19'];['INET_N_1010'];46.71;15.67;SI;None;{'end_year': 2050, 'pipe_name': None, 'start_year': 1983};{'end_year': 20, 'pipe_name': None, 'start_year': 20};{'end_year': 'make_Attrib(const)', 'pipe_name': None, 'start_year': 'make_Attrib(const)'};{}
INET_BP_20;Cordoba;['INET_BP_20'];['INET_N_314'];37.906;-4.68003;ES;None;{'end_year': 2050, 'pipe_name': None, 'start_year': 1983};{'end_year': 20, 'pipe_name': None, 'start_year': 20};{'end_year': 'make_Attrib(const)', 'pipe_name': None, 'start_year': 'make_Attrib(const)'};{}
INET_BP_21;Cordoba;['INET_BP_21'];['INET_N_314'];37.906;-4.68003;ES;None;{'end_year': 2050, 'pipe_name': None, 'start_year': 1983};{'end_year': 20, 'pipe_name': None, 'start_year': 20};{'end_year': 'make_Attrib(const)', 'pipe_name': None, 'start_year': 'make_Attrib(const)'};{}
INET_BP_22;Csanadpalota;['INET_BP_22'];['INET_N_1449'];46.302801;20.194969;UA;None;{'end_year': 2050, 'pipe_name': None, 'start_year': 1983};{'end_year': 20, 'pipe_name': None, 'start_year': 20};{'end_year': 'make_Attrib(const)', 'pipe_name': None, 'start_year': 'make_Attrib(const)'};{}
INET_BP_23;Deutschneudorf;['INET_BP_23'];['INET_N_358'];50.621;13.472999999999999;DE;None;{'end_year': 2050, 'pipe_name': None, 'start_year': 1983};{'end_year': 20, 'pipe_name': None, 'start_year': 20};{'end_year': 'make_Attrib(const)', 'pipe_name': None, 'start_year': 'make_Attrib(const)'};{}
INET_BP_24;Dilsen;['INET_BP_24'];['INET_N_1196'];50.9554323;5.8705487;BE;None;{'end_year': 2050, 'pipe_name': None, 'start_year': 1983};{'end_year': 20, 'pipe_name': None, 'start_year': 20};{'end_year': 'make_Attrib(const)', 'pipe_name': None, 'start_year': 'make_Attrib(const)'};{}
INET_BP_25;Donji Miholac;['INET_BP_25'];['INET_N_1377'];45.1566;17.9314;HR;None;{'end_year': 2050, 'pipe_name': 'Gas pipeline between Vrosfld-Slobodnica', 'start_year': 1983};{'end_year': 20, 'pipe_name': 0, 'start_year': 20};{'end_year': 'make_Attrib(const)', 'pipe_name': 'raw', 'start_year': 'make_Attrib(const)'};{}
INET_BP_26;Dornum;['INET_BP_26'];['INET_N_379'];53.66;7.404;DE;None;{'end_year': 2050, 'pipe_name': None, 'start_year': 1983};{'end_year': 20, 'pipe_name': None, 'start_year': 20};{'end_year': 'make_Attrib(const)', 'pipe_name': None, 'start_year': 'make_Attrib(const)'};{}
INET_BP_27;Dravaszerdahely;['INET_BP_27'];['INET_N_135'];46.126703;18.7741311;UA;None;{'end_year': 2050, 'pipe_name': None, 'start_year': 1983};{'end_year': 20, 'pipe_name': None, 'start_year': 20};{'end_year': 'make_Attrib(const)', 'pipe_name': None, 'start_year': 'make_Attrib(const)'};{}
INET_BP_28;Drozdwicze;['INET_BP_28'];['INET_N_391'];49.808796799999996;23.644184699999997;PL;None;{'end_year': 2050, 'pipe_name': None, 'start_year': 1983};{'end_year': 20, 'pipe_name': None, 'start_year': 20};{'end_year': 'make_Attrib(const)', 'pipe_name': None, 'start_year': 'make_Attrib(const)'};{}
INET_BP_29;Dunkerque;['INET_BP_29'];['INET_N_407'];51.033134000000004;2.1947919999999996;FR;None;{'end_year': 2050, 'pipe_name': None, 'start_year': 1983};{'end_year': 20, 'pipe_name': None, 'start_year': 20};{'end_year': 'make_Attrib(const)', 'pipe_name': None, 'start_year': 'make_Attrib(const)'};{}
INET_BP_30;Ellund;['INET_BP_30'];['INET_N_427'];54.801878;9.289041;DE;None;{'end_year': 2050, 'pipe_name': None, 'start_year': 1983};{'end_year': 20, 'pipe_name': None, 'start_year': 20};{'end_year': 'make_Attrib(const)', 'pipe_name': None, 'start_year': 'make_Attrib(const)'};{}
INET_BP_31;Elten;['INET_BP_31'];['INET_N_432'];51.897037;6.144031;DE;None;{'end_year': 2050, 'pipe_name': None, 'start_year': 1983};{'end_year': 20, 'pipe_name': None, 'start_year': 20};{'end_year': 'make_Attrib(const)', 'pipe_name': None, 'start_year': 'make_Attrib(const)'};{}
INET_BP_32;Emden;['INET_BP_32'];['INET_N_436'];53.3422;7.2062;DE;None;{'end_year': 2050, 'pipe_name': 'NPT, EPT', 'start_year': 1983};{'end_year': 20, 'pipe_name': 0, 'start_year': 20};{'end_year': 'make_Attrib(const)', 'pipe_name': 'raw', 'start_year': 'make_Attrib(const)'};{}
INET_BP_33;Emsbueren;['INET_BP_33'];['INET_N_867'];52.4807;7.3062;DE;None;{'end_year': 2050, 'pipe_name': None, 'start_year': 1983};{'end_year': 20, 'pipe_name': None, 'start_year': 20};{'end_year': 'make_Attrib(const)', 'pipe_name': None, 'start_year': 'make_Attrib(const)'};{}
INET_BP_34;Eynatten;['INET_BP_34'];['INET_N_477'];50.7;6.09;BE;None;{'end_year': 2050, 'pipe_name': None, 'start_year': 1983};{'end_year': 20, 'pipe_name': None, 'start_year': 20};{'end_year': 'make_Attrib(const)', 'pipe_name': None, 'start_year': 'make_Attrib(const)'};{}
INET_BP_35;Fallentor;['INET_BP_35'];['INET_N_479'];47.658044;8.6948726;CH;None;{'end_year': 2050, 'pipe_name': None, 'start_year': 1983};{'end_year': 20, 'pipe_name': None, 'start_year': 20};{'end_year': 'make_Attrib(const)', 'pipe_name': None, 'start_year': 'make_Attrib(const)'};{}
INET_BP_36;Gela;['INET_BP_36'];['INET_N_530'];37.052698;14.269219;IT;None;{'end_year': 2050, 'pipe_name': None, 'start_year': 1983};{'end_year': 20, 'pipe_name': None, 'start_year': 20};{'end_year': 'make_Attrib(const)', 'pipe_name': None, 'start_year': 'make_Attrib(const)'};{}
INET_BP_37;Gorizia;['INET_BP_37'];['INET_N_554'];45.942831;13.619396;IT;None;{'end_year': 2050, 'pipe_name': None, 'start_year': 1983};{'end_year': 20, 'pipe_name': None, 'start_year': 20};{'end_year': 'make_Attrib(const)', 'pipe_name': None, 'start_year': 'make_Attrib(const)'};{}
INET_BP_38;Gravenvoeren;['INET_BP_38'];['INET_N_564'];50.7587829;5.7611628;BE;None;{'end_year': 2050, 'pipe_name': None, 'start_year': 1983};{'end_year': 20, 'pipe_name': None, 'start_year': 20};{'end_year': 'make_Attrib(const)', 'pipe_name': None, 'start_year': 'make_Attrib(const)'};{}
INET_BP_39;Haiming;['INET_BP_39'];['INET_N_241'];48.1835;12.8531;DE;None;{'end_year': 2050, 'pipe_name': None, 'start_year': 1983};{'end_year': 20, 'pipe_name': None, 'start_year': 20};{'end_year': 'make_Attrib(const)', 'pipe_name': None, 'start_year': 'make_Attrib(const)'};{}
INET_BP_40;Hermanowice;['INET_BP_40'];['INET_N_696'];50.0161463;22.6777169;PL;None;{'end_year': 2050, 'pipe_name': None, 'start_year': 1983};{'end_year': 20, 'pipe_name': None, 'start_year': 20};{'end_year': 'make_Attrib(const)', 'pipe_name': None, 'start_year': 'make_Attrib(const)'};{}
INET_BP_41;Hilvarenbeek;['INET_BP_41'];['INET_N_143'];51.52;5.13;NL;None;{'end_year': 2050, 'pipe_name': None, 'start_year': 1983};{'end_year': 20, 'pipe_name': None, 'start_year': 20};{'end_year': 'make_Attrib(const)', 'pipe_name': None, 'start_year': 'make_Attrib(const)'};{}
INET_BP_42;Hugelheim;['INET_BP_42'];['INET_N_644'];47.835122;7.596259;DE;None;{'end_year': 2050, 'pipe_name': None, 'start_year': 1983};{'end_year': 20, 'pipe_name': None, 'start_year': 20};{'end_year': 'make_Attrib(const)', 'pipe_name': None, 'start_year': 'make_Attrib(const)'};{}
INET_BP_43;Imatra;['INET_BP_43'];['INET_N_664'];61.169597700000004;28.7645463;FI;None;{'end_year': 2050, 'pipe_name': None, 'start_year': 1983};{'end_year': 20, 'pipe_name': None, 'start_year': 20};{'end_year': 'make_Attrib(const)', 'pipe_name': None, 'start_year': 'make_Attrib(const)'};{}
INET_BP_44;Inzenham;['INET_BP_44'];['INET_N_737'];47.6181459;12.1868662;DE;None;{'end_year': 2050, 'pipe_name': None, 'start_year': 1983};{'end_year': 20, 'pipe_name': None, 'start_year': 20};{'end_year': 'make_Attrib(const)', 'pipe_name': None, 'start_year': 'make_Attrib(const)'};{}
INET_BP_45;Isaccea;['INET_BP_45'];['INET_N_685'];45.265423;28.4607273;RO;None;{'end_year': 2050, 'pipe_name': None, 'start_year': 1983};{'end_year': 20, 'pipe_name': None, 'start_year': 20};{'end_year': 'make_Attrib(const)', 'pipe_name': None, 'start_year': 'make_Attrib(const)'};{}
INET_BP_46;Jura La Cure;['INET_BP_46'];['INET_N_1249'];47.481;7.457;FR;None;{'end_year': 2050, 'pipe_name': None, 'start_year': 1983};{'end_year': 20, 'pipe_name': None, 'start_year': 20};{'end_year': 'make_Attrib(const)', 'pipe_name': None, 'start_year': 'make_Attrib(const)'};{}
INET_BP_47;Kardam;['INET_BP_47'];['INET_N_715'];43.753800899999995;28.107900300000004;BG;None;{'end_year': 2050, 'pipe_name': None, 'start_year': 1983};{'end_year': 20, 'pipe_name': None, 'start_year': 20};{'end_year': 'make_Attrib(const)', 'pipe_name': None, 'start_year': 'make_Attrib(const)'};{}
INET_BP_48;Karksi;['INET_BP_48'];['INET_N_718'];58.100208499999994;25.629338600000004;EE;None;{'end_year': 2050, 'pipe_name': None, 'start_year': 1983};{'end_year': 20, 'pipe_name': None, 'start_year': 20};{'end_year': 'make_Attrib(const)', 'pipe_name': None, 'start_year': 'make_Attrib(const)'};{}
INET_BP_49;Kiefersfelden;['INET_BP_49'];['INET_N_737'];47.618145899999995;12.186866199999999;DE;None;{'end_year': 2050, 'pipe_name': None, 'start_year': 1983};{'end_year': 20, 'pipe_name': None, 'start_year': 20};{'end_year': 'make_Attrib(const)', 'pipe_name': None, 'start_year': 'make_Attrib(const)'};{}
INET_BP_50;Kiemenai;['INET_BP_50'];['INET_N_658'];56.59;24.2;LT;None;{'end_year': 2050, 'pipe_name': None, 'start_year': 1983};{'end_year': 20, 'pipe_name': None, 'start_year': 20};{'end_year': 'make_Attrib(const)', 'pipe_name': None, 'start_year': 'make_Attrib(const)'};{}
INET_BP_51;Kipoi;['INET_BP_51'];['INET_N_752'];40.970417;26.307160999999997;GR;None;{'end_year': 2050, 'pipe_name': None, 'start_year': 1983};{'end_year': 20, 'pipe_name': None, 'start_year': 20};{'end_year': 'make_Attrib(const)', 'pipe_name': None, 'start_year': 'make_Attrib(const)'};{}
INET_BP_52;Kiskundorozsma;['INET_BP_52'];['INET_N_762'];46.273080900000004;20.063011;HU;None;{'end_year': 2050, 'pipe_name': None, 'start_year': 1983};{'end_year': 20, 'pipe_name': None, 'start_year': 20};{'end_year': 'make_Attrib(const)', 'pipe_name': None, 'start_year': 'make_Attrib(const)'};{}
INET_BP_53;Kondratki;['INET_BP_53'];['INET_N_775'];53.01781;23.896413;PL;None;{'end_year': 2050, 'pipe_name': 'Yamal', 'start_year': 1983};{'end_year': 20, 'pipe_name': 0, 'start_year': 20};{'end_year': 'make_Attrib(const)', 'pipe_name': 'raw', 'start_year': 'make_Attrib(const)'};{}
INET_BP_54;Korneti;['INET_BP_54'];['INET_N_779'];57.5928519;26.943475899999996;LV;None;{'end_year': 2050, 'pipe_name': 'Baltic Pipeline System', 'start_year': 1983};{'end_year': 20, 'pipe_name': 0, 'start_year': 20};{'end_year': 'make_Attrib(const)', 'pipe_name': 'raw', 'start_year': 'make_Attrib(const)'};{}
INET_BP_55;Kotlovka;['INET_BP_55'];['INET_N_783'];54.716599;25.7475233;LT;None;{'end_year': 2050, 'pipe_name': None, 'start_year': 1983};{'end_year': 20, 'pipe_name': None, 'start_year': 20};{'end_year': 'make_Attrib(const)', 'pipe_name': None, 'start_year': 'make_Attrib(const)'};{}
INET_BP_56;Kulata;['INET_BP_56'];['INET_N_801'];41.3875814;23.3632506;BG;None;{'end_year': 2050, 'pipe_name': None, 'start_year': 1983};{'end_year': 20, 'pipe_name': None, 'start_year': 20};{'end_year': 'make_Attrib(const)', 'pipe_name': None, 'start_year': 'make_Attrib(const)'};{}
INET_BP_57;Kyustendil;['INET_BP_57'];['INET_N_805'];42.2868817;22.6939308;BG;None;{'end_year': 2050, 'pipe_name': None, 'start_year': 1983};{'end_year': 20, 'pipe_name': None, 'start_year': 20};{'end_year': 'make_Attrib(const)', 'pipe_name': None, 'start_year': 'make_Attrib(const)'};{}
INET_BP_58;Lanzhot;['INET_BP_58'];['INET_N_226'];48.699;17.025;CZ;None;{'end_year': 2050, 'pipe_name': None, 'start_year': 1983};{'end_year': 20, 'pipe_name': None, 'start_year': 20};{'end_year': 'make_Attrib(const)', 'pipe_name': None, 'start_year': 'make_Attrib(const)'};{}
INET_BP_59;Larrau;['INET_BP_59'];['INET_N_829'];43.018757;-0.9557180000000001;FR;None;{'end_year': 2050, 'pipe_name': None, 'start_year': 1983};{'end_year': 20, 'pipe_name': None, 'start_year': 20};{'end_year': 'make_Attrib(const)', 'pipe_name': None, 'start_year': 'make_Attrib(const)'};{}
INET_BP_60;Lasow;['INET_BP_60'];['INET_N_831'];51.228626299999995;15.0307916;PL;None;{'end_year': 2050, 'pipe_name': None, 'start_year': 1983};{'end_year': 20, 'pipe_name': None, 'start_year': 20};{'end_year': 'make_Attrib(const)', 'pipe_name': None, 'start_year': 'make_Attrib(const)'};{}
INET_BP_61;Lebus;['INET_BP_61'];['INET_N_840'];52.427;14.543;DE;None;{'end_year': 2050, 'pipe_name': None, 'start_year': 1983};{'end_year': 20, 'pipe_name': None, 'start_year': 20};{'end_year': 'make_Attrib(const)', 'pipe_name': None, 'start_year': 'make_Attrib(const)'};{}
INET_BP_62;Lindau;['INET_BP_62'];['INET_N_866'];47.5797815;9.6789333;DE;None;{'end_year': 2050, 'pipe_name': None, 'start_year': 1983};{'end_year': 20, 'pipe_name': None, 'start_year': 20};{'end_year': 'make_Attrib(const)', 'pipe_name': None, 'start_year': 'make_Attrib(const)'};{}
INET_BP_63;Loughshinny;['INET_BP_63'];['INET_N_886'];53.548;-6.084;IE;None;{'end_year': 2050, 'pipe_name': None, 'start_year': 1983};{'end_year': 20, 'pipe_name': None, 'start_year': 20};{'end_year': 'make_Attrib(const)', 'pipe_name': None, 'start_year': 'make_Attrib(const)'};{}
INET_BP_64;Loznica;['INET_BP_64'];['INET_N_1056'];45.269;19.82;RS;None;{'end_year': 2050, 'pipe_name': None, 'start_year': 1983};{'end_year': 20, 'pipe_name': None, 'start_year': 20};{'end_year': 'make_Attrib(const)', 'pipe_name': None, 'start_year': 'make_Attrib(const)'};{}
INET_BP_65;Mallnow;['INET_BP_65'];['INET_N_915'];52.441781000000006;14.47384;DE;None;{'end_year': 2050, 'pipe_name': None, 'start_year': 1983};{'end_year': 20, 'pipe_name': None, 'start_year': 20};{'end_year': 'make_Attrib(const)', 'pipe_name': None, 'start_year': 'make_Attrib(const)'};{}
INET_BP_66;Mazara Del Vallo;['INET_BP_66'];['INET_N_935'];37.65533;12.597628;IT;None;{'end_year': 2050, 'pipe_name': 'TransMed', 'start_year': 1983};{'end_year': 20, 'pipe_name': 0, 'start_year': 20};{'end_year': 'make_Attrib(const)', 'pipe_name': 'raw', 'start_year': 'make_Attrib(const)'};{}
INET_BP_67;Medelsheim;['INET_BP_67'];['INET_N_938'];49.144;7.27;DE;None;{'end_year': 2050, 'pipe_name': 'MEGAL Nord', 'start_year': 1983};{'end_year': 20, 'pipe_name': 0, 'start_year': 20};{'end_year': 'make_Attrib(const)', 'pipe_name': 'raw', 'start_year': 'make_Attrib(const)'};{}
INET_BP_68;Mediesu Aurit;['INET_BP_68'];['INET_N_939'];47.786743;23.1376644;RO;None;{'end_year': 2050, 'pipe_name': None, 'start_year': 1983};{'end_year': 20, 'pipe_name': None, 'start_year': 20};{'end_year': 'make_Attrib(const)', 'pipe_name': None, 'start_year': 'make_Attrib(const)'};{}
INET_BP_70;Meric Nehri;['INET_BP_70'];['INET_N_952'];40.980957000000004;26.325508000000003;TR;None;{'end_year': 2050, 'pipe_name': None, 'start_year': 1983};{'end_year': 20, 'pipe_name': None, 'start_year': 20};{'end_year': 'make_Attrib(const)', 'pipe_name': None, 'start_year': 'make_Attrib(const)'};{}
INET_BP_71;Mosonmagyarovar;['INET_BP_71'];['INET_N_1001'];47.8681469;17.2689169;HU;None;{'end_year': 2050, 'pipe_name': None, 'start_year': 1983};{'end_year': 20, 'pipe_name': None, 'start_year': 20};{'end_year': 'make_Attrib(const)', 'pipe_name': None, 'start_year': 'make_Attrib(const)'};{}
INET_BP_72;Murfeld;['INET_BP_72'];['INET_N_1010'];46.71;15.67;AT;None;{'end_year': 2050, 'pipe_name': None, 'start_year': 1983};{'end_year': 20, 'pipe_name': None, 'start_year': 20};{'end_year': 'make_Attrib(const)', 'pipe_name': None, 'start_year': 'make_Attrib(const)'};{}
INET_BP_73;Narva;['INET_BP_73'];['INET_N_1017'];59.3796931;28.1790751;EE;None;{'end_year': 2050, 'pipe_name': None, 'start_year': 1983};{'end_year': 20, 'pipe_name': None, 'start_year': 20};{'end_year': 'make_Attrib(const)', 'pipe_name': None, 'start_year': 'make_Attrib(const)'};{}
INET_BP_74;Negru Voda;['INET_BP_74'];['INET_N_1021'];43.8155851;28.2176216;RO;None;{'end_year': 2050, 'pipe_name': None, 'start_year': 1983};{'end_year': 20, 'pipe_name': None, 'start_year': 20};{'end_year': 'make_Attrib(const)', 'pipe_name': None, 'start_year': 'make_Attrib(const)'};{}
INET_BP_75;Nemencine;['INET_BP_75'];['INET_N_1022'];54.860443000000004;25.3672514;LT;None;{'end_year': 2050, 'pipe_name': None, 'start_year': 1983};{'end_year': 20, 'pipe_name': None, 'start_year': 20};{'end_year': 'make_Attrib(const)', 'pipe_name': None, 'start_year': 'make_Attrib(const)'};{}
INET_BP_76;Nybro;['INET_BP_76'];['INET_N_418'];55.617559;9.3122919;DK;None;{'end_year': 2050, 'pipe_name': None, 'start_year': 1983};{'end_year': 20, 'pipe_name': None, 'start_year': 20};{'end_year': 'make_Attrib(const)', 'pipe_name': None, 'start_year': 'make_Attrib(const)'};{}
INET_BP_77;Obbicht;['INET_BP_77'];['INET_N_1196'];50.9554323;5.8705487;NL;None;{'end_year': 2050, 'pipe_name': None, 'start_year': 1983};{'end_year': 20, 'pipe_name': None, 'start_year': 20};{'end_year': 'make_Attrib(const)', 'pipe_name': None, 'start_year': 'make_Attrib(const)'};{}
INET_BP_78;Oberkappel;['INET_BP_78'];['INET_N_1071'];48.554429999999996;13.751863;AT;None;{'end_year': 2050, 'pipe_name': None, 'start_year': 1983};{'end_year': 20, 'pipe_name': None, 'start_year': 20};{'end_year': 'make_Attrib(const)', 'pipe_name': None, 'start_year': 'make_Attrib(const)'};{}
INET_BP_79;Olbernhau;['INET_BP_79'];['INET_N_1077'];50.645421;13.359860999999999;DE;None;{'end_year': 2050, 'pipe_name': None, 'start_year': 1983};{'end_year': 20, 'pipe_name': None, 'start_year': 20};{'end_year': 'make_Attrib(const)', 'pipe_name': None, 'start_year': 'make_Attrib(const)'};{}
INET_BP_80;Oltinigue;['INET_BP_80'];['INET_N_1249'];47.481;7.457;FR;None;{'end_year': 2050, 'pipe_name': None, 'start_year': 1983};{'end_year': 20, 'pipe_name': None, 'start_year': 20};{'end_year': 'make_Attrib(const)', 'pipe_name': None, 'start_year': 'make_Attrib(const)'};{}
INET_BP_81;Orlovka;['INET_BP_81'];['INET_N_1089'];45.3199;28.45287;UA;None;{'end_year': 2050, 'pipe_name': 'TENP', 'start_year': 1983};{'end_year': 20, 'pipe_name': 0, 'start_year': 20};{'end_year': 'make_Attrib(const)', 'pipe_name': 'raw', 'start_year': 'make_Attrib(const)'};{}
INET_BP_82;Otranto;['INET_BP_82'];['INET_N_944'];40.265;18.38;IT;None;{'end_year': 2050, 'pipe_name': None, 'start_year': 1983};{'end_year': 20, 'pipe_name': None, 'start_year': 20};{'end_year': 'make_Attrib(const)', 'pipe_name': None, 'start_year': 'make_Attrib(const)'};{}
INET_BP_83;Oude Statenzijl;['INET_BP_83'];['INET_N_1101'];53.2019;7.205;NL;None;{'end_year': 2050, 'pipe_name': 'EPT, NPT', 'start_year': 1983};{'end_year': 20, 'pipe_name': 0, 'start_year': 20};{'end_year': 'make_Attrib(const)', 'pipe_name': 'raw', 'start_year': 'make_Attrib(const)'};{}
INET_BP_84;Pakruojis;['INET_BP_84'];['INET_N_1360'];55.93;23.31;LT;None;{'end_year': 2050, 'pipe_name': None, 'start_year': 1983};{'end_year': 20, 'pipe_name': None, 'start_year': 20};{'end_year': 'make_Attrib(const)', 'pipe_name': None, 'start_year': 'make_Attrib(const)'};{}
INET_BP_85;Passo Gries;['INET_BP_85'];['INET_N_1119'];46.449851;8.366838000000001;IT;None;{'end_year': 2050, 'pipe_name': 'Transitgas Pipeline', 'start_year': 1983};{'end_year': 20, 'pipe_name': 0, 'start_year': 20};{'end_year': 'make_Attrib(const)', 'pipe_name': 'raw', 'start_year': 'make_Attrib(const)'};{}
INET_BP_86;Petange;['INET_BP_86'];['INET_N_1222'];49.545017;6.3674222;LU;None;{'end_year': 2050, 'pipe_name': None, 'start_year': 1983};{'end_year': 20, 'pipe_name': None, 'start_year': 20};{'end_year': 'make_Attrib(const)', 'pipe_name': None, 'start_year': 'make_Attrib(const)'};{}
INET_BP_87;Pfronten;['INET_BP_87'];['INET_N_1139'];47.5766418;10.526435099999999;DE;None;{'end_year': 2050, 'pipe_name': None, 'start_year': 1983};{'end_year': 20, 'pipe_name': None, 'start_year': 20};{'end_year': 'make_Attrib(const)', 'pipe_name': None, 'start_year': 'make_Attrib(const)'};{}
INET_BP_88;Piombino;['INET_BP_88'];['INET_N_873'];43.547519;10.311025;IT;None;{'end_year': 2050, 'pipe_name': None, 'start_year': 1983};{'end_year': 20, 'pipe_name': None, 'start_year': 20};{'end_year': 'make_Attrib(const)', 'pipe_name': None, 'start_year': 'make_Attrib(const)'};{}
INET_BP_89;Raeren;['INET_BP_89'];['INET_N_477'];50.7;6.09;BE;None;{'end_year': 2050, 'pipe_name': None, 'start_year': 1983};{'end_year': 20, 'pipe_name': None, 'start_year': 20};{'end_year': 'make_Attrib(const)', 'pipe_name': None, 'start_year': 'make_Attrib(const)'};{}
INET_BP_90;Remich;['INET_BP_90'];['INET_N_1222'];49.545017;6.3674222;LU;None;{'end_year': 2050, 'pipe_name': None, 'start_year': 1983};{'end_year': 20, 'pipe_name': None, 'start_year': 20};{'end_year': 'make_Attrib(const)', 'pipe_name': None, 'start_year': 'make_Attrib(const)'};{}
INET_BP_91;Rogatec;['INET_BP_91'];['INET_N_1250'];46.2258891;15.7000312;SI;None;{'end_year': 2050, 'pipe_name': None, 'start_year': 1983};{'end_year': 20, 'pipe_name': None, 'start_year': 20};{'end_year': 'make_Attrib(const)', 'pipe_name': None, 'start_year': 'make_Attrib(const)'};{}
INET_BP_92;Sakiai;['INET_BP_92'];['INET_N_1287'];54.952670999999995;23.0480199;LT;None;{'end_year': 2050, 'pipe_name': None, 'start_year': 1983};{'end_year': 20, 'pipe_name': None, 'start_year': 20};{'end_year': 'make_Attrib(const)', 'pipe_name': None, 'start_year': 'make_Attrib(const)'};{}
INET_BP_93;Sempeter;['INET_BP_93'];['INET_N_1344'];45.9266;13.65005;SI;None;{'end_year': 2050, 'pipe_name': None, 'start_year': 1983};{'end_year': 20, 'pipe_name': None, 'start_year': 20};{'end_year': 'make_Attrib(const)', 'pipe_name': None, 'start_year': 'make_Attrib(const)'};{}
INET_BP_94;Sidirokastron;['INET_BP_94'];['INET_N_1361'];41.2349471;23.3938203;GR;None;{'end_year': 2050, 'pipe_name': None, 'start_year': 1983};{'end_year': 20, 'pipe_name': None, 'start_year': 20};{'end_year': 'make_Attrib(const)', 'pipe_name': None, 'start_year': 'make_Attrib(const)'};{}
INET_BP_95;Silistea;['INET_BP_95'];['INET_N_1021'];43.8155851;28.2176216;RO;None;{'end_year': 2050, 'pipe_name': None, 'start_year': 1983};{'end_year': 20, 'pipe_name': None, 'start_year': 20};{'end_year': 'make_Attrib(const)', 'pipe_name': None, 'start_year': 'make_Attrib(const)'};{}
INET_BP_96;Strandja;['INET_BP_96'];['INET_N_1431'];42.1825;27.008611;BG;Srtandszha;{'end_year': 2050, 'pipe_name': None, 'start_year': 1983};{'end_year': 20, 'pipe_name': None, 'start_year': 20};{'end_year': 'make_Attrib(const)', 'pipe_name': None, 'start_year': 'make_Attrib(const)'};{}
INET_BP_97;Takovo;['INET_BP_97'];['INET_N_146'];44.79;20.44;RS;None;{'end_year': 2050, 'pipe_name': None, 'start_year': 1983};{'end_year': 20, 'pipe_name': None, 'start_year': 20};{'end_year': 'make_Attrib(const)', 'pipe_name': None, 'start_year': 'make_Attrib(const)'};{}
INET_BP_98;Tarvisio;['INET_BP_98'];['INET_N_1468'];46.505528000000005;13.592806;IT;None;{'end_year': 2050, 'pipe_name': None, 'start_year': 1983};{'end_year': 20, 'pipe_name': None, 'start_year': 20};{'end_year': 'make_Attrib(const)', 'pipe_name': None, 'start_year': 'make_Attrib(const)'};{}
INET_BP_99;Trzac;['INET_BP_99'];['INET_N_201'];45.41;15.28;BA;None;{'end_year': 2050, 'pipe_name': None, 'start_year': 1983};{'end_year': 20, 'pipe_name': None, 'start_year': 20};{'end_year': 'make_Attrib(const)', 'pipe_name': None, 'start_year': 'make_Attrib(const)'};{}
INET_BP_100;Tuy;['INET_BP_100'];['INET_N_1520'];42.155953000000004;-8.632403;ES;None;{'end_year': 2050, 'pipe_name': None, 'start_year': 1983};{'end_year': 20, 'pipe_name': None, 'start_year': 20};{'end_year': 'make_Attrib(const)', 'pipe_name': None, 'start_year': 'make_Attrib(const)'};{}
INET_BP_101;Ueberackern;['INET_BP_101'];['INET_N_241'];48.1835;12.8531;AT;None;{'end_year': 2050, 'pipe_name': None, 'start_year': 1983};{'end_year': 20, 'pipe_name': None, 'start_year': 20};{'end_year': 'make_Attrib(const)', 'pipe_name': None, 'start_year': 'make_Attrib(const)'};{}
INET_BP_102;Umag Rijeka;['INET_BP_102'];['INET_N_1574'];45.862614;13.438999;HR;None;{'end_year': 2050, 'pipe_name': None, 'start_year': 1983};{'end_year': 20, 'pipe_name': None, 'start_year': 20};{'end_year': 'make_Attrib(const)', 'pipe_name': None, 'start_year': 'make_Attrib(const)'};{}
INET_BP_103;Uzhgorod;['INET_BP_103'];['INET_N_1545'];48.6208;22.287882999999997;UA;None;{'end_year': 2050, 'pipe_name': None, 'start_year': 1983};{'end_year': 20, 'pipe_name': None, 'start_year': 20};{'end_year': 'make_Attrib(const)', 'pipe_name': None, 'start_year': 'make_Attrib(const)'};{}
INET_BP_104;Vale De Frades;['INET_BP_104'];['INET_N_1653'];41.506;-5.644;PT;None;{'end_year': 2050, 'pipe_name': None, 'start_year': 1983};{'end_year': 20, 'pipe_name': None, 'start_year': 20};{'end_year': 'make_Attrib(const)', 'pipe_name': None, 'start_year': 'make_Attrib(const)'};{}
INET_BP_105;Valenca Do Minho;['INET_BP_105'];['INET_N_1550'];42.0248024;-8.6398019;PT;None;{'end_year': 2050, 'pipe_name': None, 'start_year': 1983};{'end_year': 20, 'pipe_name': None, 'start_year': 20};{'end_year': 'make_Attrib(const)', 'pipe_name': None, 'start_year': 'make_Attrib(const)'};{}
INET_BP_106;Varska;['INET_BP_106'];['INET_N_1557'];57.957053599999995;27.6375433;EE;None;{'end_year': 2050, 'pipe_name': None, 'start_year': 1983};{'end_year': 20, 'pipe_name': None, 'start_year': 20};{'end_year': 'make_Attrib(const)', 'pipe_name': None, 'start_year': 'make_Attrib(const)'};{}
INET_BP_107;Vodice;['INET_BP_107'];['INET_N_875'];46.058;14.5;SI;None;{'end_year': 2050, 'pipe_name': None, 'start_year': 1983};{'end_year': 20, 'pipe_name': None, 'start_year': 20};{'end_year': 'make_Attrib(const)', 'pipe_name': None, 'start_year': 'make_Attrib(const)'};{}
INET_BP_108;Vyborg;['INET_BP_108'];['INET_N_664'];61.1695977;28.7645463;RU;None;{'end_year': 2050, 'pipe_name': None, 'start_year': 1983};{'end_year': 20, 'pipe_name': None, 'start_year': 20};{'end_year': 'make_Attrib(const)', 'pipe_name': None, 'start_year': 'make_Attrib(const)'};{}
INET_BP_109;Waidhaus;['INET_BP_109'];['INET_N_1595'];49.644;12.495999999999999;DE;None;{'end_year': 2050, 'pipe_name': 'MEGAL', 'start_year': 1983};{'end_year': 20, 'pipe_name': 0, 'start_year': 20};{'end_year': 'make_Attrib(const)', 'pipe_name': 'raw', 'start_year': 'make_Attrib(const)'};{}
INET_BP_110;Wallbach;['INET_BP_110'];['INET_N_1597'];47.566;7.9;DE;None;{'end_year': 2050, 'pipe_name': None, 'start_year': 1983};{'end_year': 20, 'pipe_name': None, 'start_year': 20};{'end_year': 'make_Attrib(const)', 'pipe_name': None, 'start_year': 'make_Attrib(const)'};{}
INET_BP_111;Winterswijk;['INET_BP_111'];['INET_N_457'];52.175948;7.006152;NL;None;{'end_year': 2050, 'pipe_name': None, 'start_year': 1983};{'end_year': 20, 'pipe_name': None, 'start_year': 20};{'end_year': 'make_Attrib(const)', 'pipe_name': None, 'start_year': 'make_Attrib(const)'};{}
INET_BP_112;Wysokoje;['INET_BP_112'];['INET_N_1643'];52.3696;23.371;BY;None;{'end_year': 2050, 'pipe_name': None, 'start_year': 1983};{'end_year': 20, 'pipe_name': None, 'start_year': 20};{'end_year': 'make_Attrib(const)', 'pipe_name': None, 'start_year': 'make_Attrib(const)'};{}
INET_BP_113;Zajecar;['INET_BP_113'];['INET_N_1036'];43.32;21.89;RS;None;{'end_year': 2050, 'pipe_name': None, 'start_year': 1983};{'end_year': 20, 'pipe_name': None, 'start_year': 20};{'end_year': 'make_Attrib(const)', 'pipe_name': None, 'start_year': 'make_Attrib(const)'};{}
INET_BP_114;Zandvliet;['INET_BP_114'];['INET_N_1097'];51.387;4.34;NL;None;{'end_year': 2050, 'pipe_name': None, 'start_year': 1983};{'end_year': 20, 'pipe_name': None, 'start_year': 20};{'end_year': 'make_Attrib(const)', 'pipe_name': None, 'start_year': 'make_Attrib(const)'};{}
INET_BP_115;Zeebrugge;['INET_BP_115'];['INET_N_1656'];51.323;3.213;BE;None;{'end_year': 2050, 'pipe_name': None, 'start_year': 1983};{'end_year': 20, 'pipe_name': None, 'start_year': 20};{'end_year': 'make_Attrib(const)', 'pipe_name': None, 'start_year': 'make_Attrib(const)'};{}
INET_BP_116;Zelzate;['INET_BP_116'];['INET_N_1659'];51.191165999999996;3.827686;BE;None;{'end_year': 2050, 'pipe_name': None, 'start_year': 1983};{'end_year': 20, 'pipe_name': None, 'start_year': 20};{'end_year': 'make_Attrib(const)', 'pipe_name': None, 'start_year': 'make_Attrib(const)'};{}
INET_BP_117;Zweekhorst;['INET_BP_117'];['INET_N_1668'];51.9605323;6.0759819;NL;None;{'end_year': 2050, 'pipe_name': None, 'start_year': 1983};{'end_year': 20, 'pipe_name': None, 'start_year': 20};{'end_year': 'make_Attrib(const)', 'pipe_name': None, 'start_year': 'make_Attrib(const)'};{}
INET_BP_118;Zhidilovo;['INET_BP_118'];['INET_N_1660'];42.2242526;22.398599;MK;None;{'end_year': 2050, 'pipe_name': None, 'start_year': 1983};{'end_year': 20, 'pipe_name': None, 'start_year': 20};{'end_year': 'make_Attrib(const)', 'pipe_name': None, 'start_year': 'make_Attrib(const)'};{}
