id;name;source_id;node_id;lat;long;country_code;comment;param;uncertainty;method;tags
INET_IP_0;Almeria;['INET_IP_0'];['INET_N_317'];36.7348;-2.3036;ES;;{'end_year': 2050, 'pipe_name': None, 'start_year': 1983};{'end_year': 20, 'pipe_name': None, 'start_year': 20};{'end_year': 'make_Attrib(const)', 'pipe_name': None, 'start_year': 'make_Attrib(const)'};{}
INET_IP_1;Alveringem;['INET_IP_1'];['INET_N_479'];50.926317;2.315596;BE;;{'end_year': 2050, 'pipe_name': 'Alveringem-Maldegem pipeline', 'start_year': 1983};{'end_year': 20, 'pipe_name': 0, 'start_year': 20};{'end_year': 'make_Attrib(const)', 'pipe_name': 'raw', 'start_year': 'make_Attrib(const)'};{}
INET_IP_2;Arnoldstein;['INET_IP_2'];['INET_N_6'];46.5499903;13.7057619;AT;;{'end_year': 2050, 'pipe_name': 'medgaz', 'start_year': 1983};{'end_year': 20, 'pipe_name': 0, 'start_year': 20};{'end_year': 'make_Attrib(const)', 'pipe_name': 'raw', 'start_year': 'make_Attrib(const)'};{}
INET_IP_3;Backi Breg;['INET_IP_3'];['INET_N_983'];45.78;19.12;RS;;{'end_year': 2050, 'pipe_name': None, 'start_year': 1983};{'end_year': 20, 'pipe_name': None, 'start_year': 20};{'end_year': 'make_Attrib(const)', 'pipe_name': None, 'start_year': 'make_Attrib(const)'};{}
INET_IP_4;Badajoz;['INET_IP_4'];['INET_N_334'];38.87665;-6.9714;ES;;{'end_year': 2050, 'pipe_name': None, 'start_year': 1983};{'end_year': 20, 'pipe_name': None, 'start_year': 20};{'end_year': 'make_Attrib(const)', 'pipe_name': None, 'start_year': 'make_Attrib(const)'};{}
INET_IP_5;Balassagyarmat;['INET_IP_5'];['INET_N_1043'];48.2023;19.461;UA;;{'end_year': 2050, 'pipe_name': 'Slovak-Hungarian Gas Interconnector', 'start_year': 1983};{'end_year': 20, 'pipe_name': 0, 'start_year': 20};{'end_year': 'make_Attrib(const)', 'pipe_name': 'raw', 'start_year': 'make_Attrib(const)'};{}
INET_IP_6;Balgzand;['INET_IP_6'];['INET_N_876'];52.86;4.822;NL;;{'end_year': 2050, 'pipe_name': None, 'start_year': 1983};{'end_year': 20, 'pipe_name': None, 'start_year': 20};{'end_year': 'make_Attrib(const)', 'pipe_name': None, 'start_year': 'make_Attrib(const)'};{}
INET_IP_7;Ballylumford;['INET_IP_7'];['INET_N_559'];54.84019;-5.788932;GB;;{'end_year': 2050, 'pipe_name': None, 'start_year': 1983};{'end_year': 20, 'pipe_name': None, 'start_year': 20};{'end_year': 'make_Attrib(const)', 'pipe_name': None, 'start_year': 'make_Attrib(const)'};{}
INET_IP_8;Basel;['INET_IP_8'];['INET_N_441'];47.481;7.457;CH;;{'end_year': 2050, 'pipe_name': None, 'start_year': 1983};{'end_year': 20, 'pipe_name': None, 'start_year': 20};{'end_year': 'make_Attrib(const)', 'pipe_name': None, 'start_year': 'make_Attrib(const)'};{}
INET_IP_9;Baumgarten;['INET_IP_9'];['INET_N_24'];48.316295;16.875328;AT;;{'end_year': 2050, 'pipe_name': 'WAG', 'start_year': 1983};{'end_year': 20, 'pipe_name': 0, 'start_year': 20};{'end_year': 'make_Attrib(const)', 'pipe_name': 'raw', 'start_year': 'make_Attrib(const)'};{}
INET_IP_10;Beregdaroc;['INET_IP_10'];['INET_N_636'];48.1985108;22.5320069;HU;;{'end_year': 2050, 'pipe_name': None, 'start_year': 1983};{'end_year': 20, 'pipe_name': None, 'start_year': 20};{'end_year': 'make_Attrib(const)', 'pipe_name': None, 'start_year': 'make_Attrib(const)'};{}
INET_IP_11;Bibesti;['INET_IP_11'];['INET_N_962'];44.7815366;23.4907078;RO;;{'end_year': 2050, 'pipe_name': None, 'start_year': 1983};{'end_year': 20, 'pipe_name': None, 'start_year': 20};{'end_year': 'make_Attrib(const)', 'pipe_name': None, 'start_year': 'make_Attrib(const)'};{}
INET_IP_12;Biriatou;['INET_IP_12'];['INET_N_394'];43.333204;-1.743022;FR;;{'end_year': 2050, 'pipe_name': None, 'start_year': 1983};{'end_year': 20, 'pipe_name': None, 'start_year': 20};{'end_year': 'make_Attrib(const)', 'pipe_name': None, 'start_year': 'make_Attrib(const)'};{}
INET_IP_13;Bocholtz;['INET_IP_13'];['INET_N_821'];50.817365;6.021767;NL;;{'end_year': 2050, 'pipe_name': 'TENP', 'start_year': 1983};{'end_year': 20, 'pipe_name': 0, 'start_year': 20};{'end_year': 'make_Attrib(const)', 'pipe_name': 'raw', 'start_year': 'make_Attrib(const)'};{}
INET_IP_14;Brandov;['INET_IP_14'];['INET_N_119'];50.635;13.39;CZ;;{'end_year': 2050, 'pipe_name': None, 'start_year': 1983};{'end_year': 20, 'pipe_name': None, 'start_year': 20};{'end_year': 'make_Attrib(const)', 'pipe_name': None, 'start_year': 'make_Attrib(const)'};{}
INET_IP_15;Brighthouse;['INET_IP_15'];['INET_N_558'];54.78735;-4.12912;GB;;{'end_year': 2050, 'pipe_name': None, 'start_year': 1983};{'end_year': 20, 'pipe_name': None, 'start_year': 20};{'end_year': 'make_Attrib(const)', 'pipe_name': None, 'start_year': 'make_Attrib(const)'};{}
INET_IP_16;Budince;['INET_IP_16'];['INET_N_1056'];48.552002;22.121625;SK;;{'end_year': 2050, 'pipe_name': 'Vojany-U?horod pipeline', 'start_year': 1983};{'end_year': 20, 'pipe_name': 0, 'start_year': 20};{'end_year': 'make_Attrib(const)', 'pipe_name': 'raw', 'start_year': 'make_Attrib(const)'};{}
INET_IP_17;Burghausen;['INET_IP_17'];['INET_N_135'];48.17;12.826;DE;;{'end_year': 2050, 'pipe_name': 'MONACO', 'start_year': 1983};{'end_year': 20, 'pipe_name': 0, 'start_year': 20};{'end_year': 'make_Attrib(const)', 'pipe_name': 'raw', 'start_year': 'make_Attrib(const)'};{}
INET_IP_18;Campo Maior;['INET_IP_18'];['INET_N_947'];38.982;-7.059;PT;;{'end_year': 2050, 'pipe_name': None, 'start_year': 1983};{'end_year': 20, 'pipe_name': None, 'start_year': 20};{'end_year': 'make_Attrib(const)', 'pipe_name': None, 'start_year': 'make_Attrib(const)'};{}
INET_IP_19;Cersak;['INET_IP_19'];['INET_N_8'];46.71;15.67;SI;;{'end_year': 2050, 'pipe_name': None, 'start_year': 1983};{'end_year': 20, 'pipe_name': None, 'start_year': 20};{'end_year': 'make_Attrib(const)', 'pipe_name': None, 'start_year': 'make_Attrib(const)'};{}
INET_IP_20;Cordoba;['INET_IP_20'];['INET_N_327'];37.906;-4.68003;ES;;{'end_year': 2050, 'pipe_name': None, 'start_year': 1983};{'end_year': 20, 'pipe_name': None, 'start_year': 20};{'end_year': 'make_Attrib(const)', 'pipe_name': None, 'start_year': 'make_Attrib(const)'};{}
INET_IP_21;Cordoba;['INET_IP_21'];['INET_N_327'];37.906;-4.68003;ES;;{'end_year': 2050, 'pipe_name': None, 'start_year': 1983};{'end_year': 20, 'pipe_name': None, 'start_year': 20};{'end_year': 'make_Attrib(const)', 'pipe_name': None, 'start_year': 'make_Attrib(const)'};{}
INET_IP_22;Csanadpalota;['INET_IP_22'];['INET_N_626'];46.302801;20.194969;UA;;{'end_year': 2050, 'pipe_name': None, 'start_year': 1983};{'end_year': 20, 'pipe_name': None, 'start_year': 20};{'end_year': 'make_Attrib(const)', 'pipe_name': None, 'start_year': 'make_Attrib(const)'};{}
INET_IP_23;Deutschneudorf;['INET_IP_23'];['INET_N_174'];50.621;13.473;DE;;{'end_year': 2050, 'pipe_name': None, 'start_year': 1983};{'end_year': 20, 'pipe_name': None, 'start_year': 20};{'end_year': 'make_Attrib(const)', 'pipe_name': None, 'start_year': 'make_Attrib(const)'};{}
INET_IP_24;Dilsen;['INET_IP_24'];['INET_N_824'];50.9554323;5.8705487;BE;;{'end_year': 2050, 'pipe_name': None, 'start_year': 1983};{'end_year': 20, 'pipe_name': None, 'start_year': 20};{'end_year': 'make_Attrib(const)', 'pipe_name': None, 'start_year': 'make_Attrib(const)'};{}
INET_IP_25;Donji Miholac;['INET_IP_25'];['INET_N_615'];45.1566;17.9314;HR;;{'end_year': 2050, 'pipe_name': 'Gas pipeline between Vrosfld-Slobodnica', 'start_year': 1983};{'end_year': 20, 'pipe_name': 0, 'start_year': 20};{'end_year': 'make_Attrib(const)', 'pipe_name': 'raw', 'start_year': 'make_Attrib(const)'};{}
INET_IP_26;Dornum;['INET_IP_26'];['INET_N_274'];53.66;7.404;DE;;{'end_year': 2050, 'pipe_name': None, 'start_year': 1983};{'end_year': 20, 'pipe_name': None, 'start_year': 20};{'end_year': 'make_Attrib(const)', 'pipe_name': None, 'start_year': 'make_Attrib(const)'};{}
INET_IP_27;Dravaszerdahely;['INET_IP_27'];['INET_N_624'];46.126703;18.7741311;UA;;{'end_year': 2050, 'pipe_name': None, 'start_year': 1983};{'end_year': 20, 'pipe_name': None, 'start_year': 20};{'end_year': 'make_Attrib(const)', 'pipe_name': None, 'start_year': 'make_Attrib(const)'};{}
INET_IP_28;Drozdwicze;['INET_IP_28'];['INET_N_903'];49.8087968;23.6441847;PL;;{'end_year': 2050, 'pipe_name': None, 'start_year': 1983};{'end_year': 20, 'pipe_name': None, 'start_year': 20};{'end_year': 'make_Attrib(const)', 'pipe_name': None, 'start_year': 'make_Attrib(const)'};{}
INET_IP_29;Dunkerque;['INET_IP_29'];['INET_N_481'];51.033134;2.194792;FR;;{'end_year': 2050, 'pipe_name': None, 'start_year': 1983};{'end_year': 20, 'pipe_name': None, 'start_year': 20};{'end_year': 'make_Attrib(const)', 'pipe_name': None, 'start_year': 'make_Attrib(const)'};{}
INET_IP_30;Ellund;['INET_IP_30'];['INET_N_283'];54.801878;9.289041;DE;;{'end_year': 2050, 'pipe_name': None, 'start_year': 1983};{'end_year': 20, 'pipe_name': None, 'start_year': 20};{'end_year': 'make_Attrib(const)', 'pipe_name': None, 'start_year': 'make_Attrib(const)'};{}
INET_IP_31;Elten;['INET_IP_31'];['INET_N_210'];51.897037;6.144031;DE;;{'end_year': 2050, 'pipe_name': None, 'start_year': 1983};{'end_year': 20, 'pipe_name': None, 'start_year': 20};{'end_year': 'make_Attrib(const)', 'pipe_name': None, 'start_year': 'make_Attrib(const)'};{}
INET_IP_32;Emden;['INET_IP_32'];['INET_N_264'];53.3594029;7.2060095;DE;;{'end_year': 2050, 'pipe_name': 'NPT, EPT', 'start_year': 1983};{'end_year': 20, 'pipe_name': 0, 'start_year': 20};{'end_year': 'make_Attrib(const)', 'pipe_name': 'raw', 'start_year': 'make_Attrib(const)'};{}
INET_IP_33;Emsbueren;['INET_IP_33'];['INET_N_239'];52.516;7.331;DE;;{'end_year': 2050, 'pipe_name': None, 'start_year': 1983};{'end_year': 20, 'pipe_name': None, 'start_year': 20};{'end_year': 'make_Attrib(const)', 'pipe_name': None, 'start_year': 'make_Attrib(const)'};{}
INET_IP_34;Eynatten;['INET_IP_34'];['INET_N_41'];50.7;6.09;BE;;{'end_year': 2050, 'pipe_name': None, 'start_year': 1983};{'end_year': 20, 'pipe_name': None, 'start_year': 20};{'end_year': 'make_Attrib(const)', 'pipe_name': None, 'start_year': 'make_Attrib(const)'};{}
INET_IP_35;Fallentor;['INET_IP_35'];['INET_N_93'];47.658044;8.6948726;CH;;{'end_year': 2050, 'pipe_name': None, 'start_year': 1983};{'end_year': 20, 'pipe_name': None, 'start_year': 20};{'end_year': 'make_Attrib(const)', 'pipe_name': None, 'start_year': 'make_Attrib(const)'};{}
INET_IP_36;Gela;['INET_IP_36'];['INET_N_656'];37.052698;14.269219;IT;;{'end_year': 2050, 'pipe_name': None, 'start_year': 1983};{'end_year': 20, 'pipe_name': None, 'start_year': 20};{'end_year': 'make_Attrib(const)', 'pipe_name': None, 'start_year': 'make_Attrib(const)'};{}
INET_IP_37;Gorizia;['INET_IP_37'];['INET_N_768'];45.942831;13.619396;IT;;{'end_year': 2050, 'pipe_name': None, 'start_year': 1983};{'end_year': 20, 'pipe_name': None, 'start_year': 20};{'end_year': 'make_Attrib(const)', 'pipe_name': None, 'start_year': 'make_Attrib(const)'};{}
INET_IP_38;Gravenvoeren;['INET_IP_38'];['INET_N_43'];50.7587829;5.7611628;BE;;{'end_year': 2050, 'pipe_name': None, 'start_year': 1983};{'end_year': 20, 'pipe_name': None, 'start_year': 20};{'end_year': 'make_Attrib(const)', 'pipe_name': None, 'start_year': 'make_Attrib(const)'};{}
INET_IP_39;Haiming;['INET_IP_39'];['INET_N_135'];48.17;12.826;DE;;{'end_year': 2050, 'pipe_name': None, 'start_year': 1983};{'end_year': 20, 'pipe_name': None, 'start_year': 20};{'end_year': 'make_Attrib(const)', 'pipe_name': None, 'start_year': 'make_Attrib(const)'};{}
INET_IP_40;Hermanowice;['INET_IP_40'];['INET_N_906'];50.0161463;22.6777169;PL;;{'end_year': 2050, 'pipe_name': None, 'start_year': 1983};{'end_year': 20, 'pipe_name': None, 'start_year': 20};{'end_year': 'make_Attrib(const)', 'pipe_name': None, 'start_year': 'make_Attrib(const)'};{}
INET_IP_41;Hilvarenbeek;['INET_IP_41'];['INET_N_839'];51.52;5.13;NL;;{'end_year': 2050, 'pipe_name': None, 'start_year': 1983};{'end_year': 20, 'pipe_name': None, 'start_year': 20};{'end_year': 'make_Attrib(const)', 'pipe_name': None, 'start_year': 'make_Attrib(const)'};{}
INET_IP_42;Hugelheim;['INET_IP_42'];['INET_N_127'];47.835122;7.596259;DE;;{'end_year': 2050, 'pipe_name': None, 'start_year': 1983};{'end_year': 20, 'pipe_name': None, 'start_year': 20};{'end_year': 'make_Attrib(const)', 'pipe_name': None, 'start_year': 'make_Attrib(const)'};{}
INET_IP_43;Imatra;['INET_IP_43'];['INET_N_386'];61.1695977;28.7645463;FI;;{'end_year': 2050, 'pipe_name': None, 'start_year': 1983};{'end_year': 20, 'pipe_name': None, 'start_year': 20};{'end_year': 'make_Attrib(const)', 'pipe_name': None, 'start_year': 'make_Attrib(const)'};{}
INET_IP_44;Inzenham;['INET_IP_44'];['INET_N_124'];47.6181459;12.1868662;DE;;{'end_year': 2050, 'pipe_name': None, 'start_year': 1983};{'end_year': 20, 'pipe_name': None, 'start_year': 20};{'end_year': 'make_Attrib(const)', 'pipe_name': None, 'start_year': 'make_Attrib(const)'};{}
INET_IP_45;Isaccea;['INET_IP_45'];['INET_N_964'];45.265423;28.4607273;RO;;{'end_year': 2050, 'pipe_name': None, 'start_year': 1983};{'end_year': 20, 'pipe_name': None, 'start_year': 20};{'end_year': 'make_Attrib(const)', 'pipe_name': None, 'start_year': 'make_Attrib(const)'};{}
INET_IP_46;Jura La Cure;['INET_IP_46'];['INET_N_441'];47.481;7.457;FR;;{'end_year': 2050, 'pipe_name': None, 'start_year': 1983};{'end_year': 20, 'pipe_name': None, 'start_year': 20};{'end_year': 'make_Attrib(const)', 'pipe_name': None, 'start_year': 'make_Attrib(const)'};{}
INET_IP_47;Kardam;['INET_IP_47'];['INET_N_75'];43.7538009;28.1079003;BG;;{'end_year': 2050, 'pipe_name': None, 'start_year': 1983};{'end_year': 20, 'pipe_name': None, 'start_year': 20};{'end_year': 'make_Attrib(const)', 'pipe_name': None, 'start_year': 'make_Attrib(const)'};{}
INET_IP_48;Karksi;['INET_IP_48'];['INET_N_303'];58.1002085;25.6293386;EE;;{'end_year': 2050, 'pipe_name': None, 'start_year': 1983};{'end_year': 20, 'pipe_name': None, 'start_year': 20};{'end_year': 'make_Attrib(const)', 'pipe_name': None, 'start_year': 'make_Attrib(const)'};{}
INET_IP_49;Kiefersfelden;['INET_IP_49'];['INET_N_124'];47.6181459;12.1868662;DE;;{'end_year': 2050, 'pipe_name': None, 'start_year': 1983};{'end_year': 20, 'pipe_name': None, 'start_year': 20};{'end_year': 'make_Attrib(const)', 'pipe_name': None, 'start_year': 'make_Attrib(const)'};{}
INET_IP_50;Kiemenai;['INET_IP_50'];['INET_N_808'];56.59;24.2;LT;;{'end_year': 2050, 'pipe_name': None, 'start_year': 1983};{'end_year': 20, 'pipe_name': None, 'start_year': 20};{'end_year': 'make_Attrib(const)', 'pipe_name': None, 'start_year': 'make_Attrib(const)'};{}
INET_IP_51;Kipoi;['INET_IP_51'];['INET_N_605'];40.970417;26.307161;GR;;{'end_year': 2050, 'pipe_name': None, 'start_year': 1983};{'end_year': 20, 'pipe_name': None, 'start_year': 20};{'end_year': 'make_Attrib(const)', 'pipe_name': None, 'start_year': 'make_Attrib(const)'};{}
INET_IP_52;Kiskundorozsma;['INET_IP_52'];['INET_N_625'];46.2730809;20.063011;HU;;{'end_year': 2050, 'pipe_name': None, 'start_year': 1983};{'end_year': 20, 'pipe_name': None, 'start_year': 20};{'end_year': 'make_Attrib(const)', 'pipe_name': None, 'start_year': 'make_Attrib(const)'};{}
INET_IP_53;Kondratki;['INET_IP_53'];['INET_N_932'];53.01781;23.896413;PL;;{'end_year': 2050, 'pipe_name': 'Yamal', 'start_year': 1983};{'end_year': 20, 'pipe_name': 0, 'start_year': 20};{'end_year': 'make_Attrib(const)', 'pipe_name': 'raw', 'start_year': 'make_Attrib(const)'};{}
INET_IP_54;Korneti;['INET_IP_54'];['INET_N_813'];57.5928519;26.9434759;LV;;{'end_year': 2050, 'pipe_name': 'Baltic Pipeline System', 'start_year': 1983};{'end_year': 20, 'pipe_name': 0, 'start_year': 20};{'end_year': 'make_Attrib(const)', 'pipe_name': 'raw', 'start_year': 'make_Attrib(const)'};{}
INET_IP_55;Kotlovka;['INET_IP_55'];['INET_N_785'];54.716599;25.7475233;LT;;{'end_year': 2050, 'pipe_name': None, 'start_year': 1983};{'end_year': 20, 'pipe_name': None, 'start_year': 20};{'end_year': 'make_Attrib(const)', 'pipe_name': None, 'start_year': 'make_Attrib(const)'};{}
INET_IP_56;Kulata;['INET_IP_56'];['INET_N_55'];41.3875814;23.3632506;BG;;{'end_year': 2050, 'pipe_name': None, 'start_year': 1983};{'end_year': 20, 'pipe_name': None, 'start_year': 20};{'end_year': 'make_Attrib(const)', 'pipe_name': None, 'start_year': 'make_Attrib(const)'};{}
INET_IP_57;Kyustendil;['INET_IP_57'];['INET_N_64'];42.2868817;22.6939308;BG;;{'end_year': 2050, 'pipe_name': None, 'start_year': 1983};{'end_year': 20, 'pipe_name': None, 'start_year': 20};{'end_year': 'make_Attrib(const)', 'pipe_name': None, 'start_year': 'make_Attrib(const)'};{}
INET_IP_58;Lanzhot;['INET_IP_58'];['INET_N_1057'];48.699;17.025;CZ;;{'end_year': 2050, 'pipe_name': None, 'start_year': 1983};{'end_year': 20, 'pipe_name': None, 'start_year': 20};{'end_year': 'make_Attrib(const)', 'pipe_name': None, 'start_year': 'make_Attrib(const)'};{}
INET_IP_59;Larrau;['INET_IP_59'];['INET_N_392'];43.018757;-0.955718;FR;;{'end_year': 2050, 'pipe_name': None, 'start_year': 1983};{'end_year': 20, 'pipe_name': None, 'start_year': 20};{'end_year': 'make_Attrib(const)', 'pipe_name': None, 'start_year': 'make_Attrib(const)'};{}
INET_IP_60;Lasow;['INET_IP_60'];['INET_N_914'];51.2286263;15.0307916;PL;;{'end_year': 2050, 'pipe_name': None, 'start_year': 1983};{'end_year': 20, 'pipe_name': None, 'start_year': 20};{'end_year': 'make_Attrib(const)', 'pipe_name': None, 'start_year': 'make_Attrib(const)'};{}
INET_IP_61;Lindau;['INET_IP_61'];['INET_N_122'];47.5797815;9.6789333;DE;;{'end_year': 2050, 'pipe_name': None, 'start_year': 1983};{'end_year': 20, 'pipe_name': None, 'start_year': 20};{'end_year': 'make_Attrib(const)', 'pipe_name': None, 'start_year': 'make_Attrib(const)'};{}
INET_IP_62;Loughshinny;['INET_IP_62'];['INET_N_651'];53.548;-6.084;IE;;{'end_year': 2050, 'pipe_name': None, 'start_year': 1983};{'end_year': 20, 'pipe_name': None, 'start_year': 20};{'end_year': 'make_Attrib(const)', 'pipe_name': None, 'start_year': 'make_Attrib(const)'};{}
INET_IP_63;Loznica;['INET_IP_63'];['INET_N_980'];45.269;19.82;RS;;{'end_year': 2050, 'pipe_name': None, 'start_year': 1983};{'end_year': 20, 'pipe_name': None, 'start_year': 20};{'end_year': 'make_Attrib(const)', 'pipe_name': None, 'start_year': 'make_Attrib(const)'};{}
INET_IP_64;Mallnow;['INET_IP_64'];['INET_N_234'];52.441781;14.47384;DE;;{'end_year': 2050, 'pipe_name': None, 'start_year': 1983};{'end_year': 20, 'pipe_name': None, 'start_year': 20};{'end_year': 'make_Attrib(const)', 'pipe_name': None, 'start_year': 'make_Attrib(const)'};{}
INET_IP_65;Mazara Del Vallo;['INET_IP_65'];['INET_N_661'];37.65533;12.597628;IT;;{'end_year': 2050, 'pipe_name': 'TransMed', 'start_year': 1983};{'end_year': 20, 'pipe_name': 0, 'start_year': 20};{'end_year': 'make_Attrib(const)', 'pipe_name': 'raw', 'start_year': 'make_Attrib(const)'};{}
INET_IP_66;Medelsheim;['INET_IP_66'];['INET_N_152'];49.144;7.27;DE;;{'end_year': 2050, 'pipe_name': 'MEGAL Nord', 'start_year': 1983};{'end_year': 20, 'pipe_name': 0, 'start_year': 20};{'end_year': 'make_Attrib(const)', 'pipe_name': 'raw', 'start_year': 'make_Attrib(const)'};{}
INET_IP_67;Mediesu Aurit;['INET_IP_67'];['INET_N_972'];47.786743;23.1376644;RO;;{'end_year': 2050, 'pipe_name': None, 'start_year': 1983};{'end_year': 20, 'pipe_name': None, 'start_year': 20};{'end_year': 'make_Attrib(const)', 'pipe_name': None, 'start_year': 'make_Attrib(const)'};{}
INET_IP_69;Mosonmagyarovar;['INET_IP_69'];['INET_N_634'];47.8681469;17.2689169;HU;;{'end_year': 2050, 'pipe_name': None, 'start_year': 1983};{'end_year': 20, 'pipe_name': None, 'start_year': 20};{'end_year': 'make_Attrib(const)', 'pipe_name': None, 'start_year': 'make_Attrib(const)'};{}
INET_IP_70;Murfeld;['INET_IP_70'];['INET_N_8'];46.71;15.67;AT;;{'end_year': 2050, 'pipe_name': None, 'start_year': 1983};{'end_year': 20, 'pipe_name': None, 'start_year': 20};{'end_year': 'make_Attrib(const)', 'pipe_name': None, 'start_year': 'make_Attrib(const)'};{}
INET_IP_71;Narva;['INET_IP_71'];['INET_N_311'];59.3796931;28.1790751;EE;;{'end_year': 2050, 'pipe_name': None, 'start_year': 1983};{'end_year': 20, 'pipe_name': None, 'start_year': 20};{'end_year': 'make_Attrib(const)', 'pipe_name': None, 'start_year': 'make_Attrib(const)'};{}
INET_IP_72;Negru Voda;['INET_IP_72'];['INET_N_954'];43.8155851;28.2176216;RO;;{'end_year': 2050, 'pipe_name': None, 'start_year': 1983};{'end_year': 20, 'pipe_name': None, 'start_year': 20};{'end_year': 'make_Attrib(const)', 'pipe_name': None, 'start_year': 'make_Attrib(const)'};{}
INET_IP_73;Nemencine;['INET_IP_73'];['INET_N_787'];54.860443;25.3672514;LT;;{'end_year': 2050, 'pipe_name': None, 'start_year': 1983};{'end_year': 20, 'pipe_name': None, 'start_year': 20};{'end_year': 'make_Attrib(const)', 'pipe_name': None, 'start_year': 'make_Attrib(const)'};{}
INET_IP_74;Nybro;['INET_IP_74'];['INET_N_290'];55.617559;9.3122919;DK;;{'end_year': 2050, 'pipe_name': None, 'start_year': 1983};{'end_year': 20, 'pipe_name': None, 'start_year': 20};{'end_year': 'make_Attrib(const)', 'pipe_name': None, 'start_year': 'make_Attrib(const)'};{}
INET_IP_75;Obbicht;['INET_IP_75'];['INET_N_824'];50.9554323;5.8705487;NL;;{'end_year': 2050, 'pipe_name': None, 'start_year': 1983};{'end_year': 20, 'pipe_name': None, 'start_year': 20};{'end_year': 'make_Attrib(const)', 'pipe_name': None, 'start_year': 'make_Attrib(const)'};{}
INET_IP_76;Oberkappel;['INET_IP_76'];['INET_N_33'];48.55443;13.751863;AT;;{'end_year': 2050, 'pipe_name': None, 'start_year': 1983};{'end_year': 20, 'pipe_name': None, 'start_year': 20};{'end_year': 'make_Attrib(const)', 'pipe_name': None, 'start_year': 'make_Attrib(const)'};{}
INET_IP_77;Olbernhau;['INET_IP_77'];['INET_N_176'];50.645421;13.359861;DE;;{'end_year': 2050, 'pipe_name': None, 'start_year': 1983};{'end_year': 20, 'pipe_name': None, 'start_year': 20};{'end_year': 'make_Attrib(const)', 'pipe_name': None, 'start_year': 'make_Attrib(const)'};{}
INET_IP_78;Oltinigue;['INET_IP_78'];['INET_N_441'];47.481;7.457;FR;;{'end_year': 2050, 'pipe_name': None, 'start_year': 1983};{'end_year': 20, 'pipe_name': None, 'start_year': 20};{'end_year': 'make_Attrib(const)', 'pipe_name': None, 'start_year': 'make_Attrib(const)'};{}
INET_IP_79;Orlovka;['INET_IP_79'];['INET_N_1066'];45.3199;28.45287;UA;;{'end_year': 2050, 'pipe_name': 'TENP', 'start_year': 1983};{'end_year': 20, 'pipe_name': 0, 'start_year': 20};{'end_year': 'make_Attrib(const)', 'pipe_name': 'raw', 'start_year': 'make_Attrib(const)'};{}
INET_IP_80;Otranto;['INET_IP_80'];['INET_N_677'];40.265;18.38;IT;;{'end_year': 2050, 'pipe_name': None, 'start_year': 1983};{'end_year': 20, 'pipe_name': None, 'start_year': 20};{'end_year': 'make_Attrib(const)', 'pipe_name': None, 'start_year': 'make_Attrib(const)'};{}
INET_IP_81;Oude Statenzijl;['INET_IP_81'];['INET_N_890'];53.2019;7.205;NL;;{'end_year': 2050, 'pipe_name': 'EPT, NPT', 'start_year': 1983};{'end_year': 20, 'pipe_name': 0, 'start_year': 20};{'end_year': 'make_Attrib(const)', 'pipe_name': 'raw', 'start_year': 'make_Attrib(const)'};{}
INET_IP_82;Pakruojis;['INET_IP_82'];['INET_N_799'];55.93;23.31;LT;;{'end_year': 2050, 'pipe_name': None, 'start_year': 1983};{'end_year': 20, 'pipe_name': None, 'start_year': 20};{'end_year': 'make_Attrib(const)', 'pipe_name': None, 'start_year': 'make_Attrib(const)'};{}
INET_IP_83;Passo Gries;['INET_IP_83'];['INET_N_776'];46.449851;8.366838;IT;;{'end_year': 2050, 'pipe_name': 'Transitgas Pipeline', 'start_year': 1983};{'end_year': 20, 'pipe_name': 0, 'start_year': 20};{'end_year': 'make_Attrib(const)', 'pipe_name': 'raw', 'start_year': 'make_Attrib(const)'};{}
INET_IP_84;Petange;['INET_IP_84'];['INET_N_803'];49.545017;6.3674222;LU;;{'end_year': 2050, 'pipe_name': None, 'start_year': 1983};{'end_year': 20, 'pipe_name': None, 'start_year': 20};{'end_year': 'make_Attrib(const)', 'pipe_name': None, 'start_year': 'make_Attrib(const)'};{}
INET_IP_85;Pfronten;['INET_IP_85'];['INET_N_121'];47.5766418;10.5264351;DE;;{'end_year': 2050, 'pipe_name': None, 'start_year': 1983};{'end_year': 20, 'pipe_name': None, 'start_year': 20};{'end_year': 'make_Attrib(const)', 'pipe_name': None, 'start_year': 'make_Attrib(const)'};{}
INET_IP_86;Piombino;['INET_IP_86'];['INET_N_716'];43.547519;10.311025;IT;;{'end_year': 2050, 'pipe_name': None, 'start_year': 1983};{'end_year': 20, 'pipe_name': None, 'start_year': 20};{'end_year': 'make_Attrib(const)', 'pipe_name': None, 'start_year': 'make_Attrib(const)'};{}
INET_IP_87;Raeren;['INET_IP_87'];['INET_N_41'];50.7;6.09;BE;;{'end_year': 2050, 'pipe_name': None, 'start_year': 1983};{'end_year': 20, 'pipe_name': None, 'start_year': 20};{'end_year': 'make_Attrib(const)', 'pipe_name': None, 'start_year': 'make_Attrib(const)'};{}
INET_IP_88;Remich;['INET_IP_88'];['INET_N_803'];49.545017;6.3674222;LU;;{'end_year': 2050, 'pipe_name': None, 'start_year': 1983};{'end_year': 20, 'pipe_name': None, 'start_year': 20};{'end_year': 'make_Attrib(const)', 'pipe_name': None, 'start_year': 'make_Attrib(const)'};{}
INET_IP_89;Rogatec;['INET_IP_89'];['INET_N_1041'];46.2258891;15.7000312;SK;;{'end_year': 2050, 'pipe_name': None, 'start_year': 1983};{'end_year': 20, 'pipe_name': None, 'start_year': 20};{'end_year': 'make_Attrib(const)', 'pipe_name': None, 'start_year': 'make_Attrib(const)'};{}
INET_IP_90;Sakiai;['INET_IP_90'];['INET_N_790'];54.952671;23.0480199;LT;;{'end_year': 2050, 'pipe_name': None, 'start_year': 1983};{'end_year': 20, 'pipe_name': None, 'start_year': 20};{'end_year': 'make_Attrib(const)', 'pipe_name': None, 'start_year': 'make_Attrib(const)'};{}
INET_IP_91;Sempeter;['INET_IP_91'];['INET_N_1034'];45.9266;13.65005;SI;;{'end_year': 2050, 'pipe_name': None, 'start_year': 1983};{'end_year': 20, 'pipe_name': None, 'start_year': 20};{'end_year': 'make_Attrib(const)', 'pipe_name': None, 'start_year': 'make_Attrib(const)'};{}
INET_IP_92;Sidirokastron;['INET_IP_92'];['INET_N_609'];41.2349471;23.3938203;GR;;{'end_year': 2050, 'pipe_name': None, 'start_year': 1983};{'end_year': 20, 'pipe_name': None, 'start_year': 20};{'end_year': 'make_Attrib(const)', 'pipe_name': None, 'start_year': 'make_Attrib(const)'};{}
INET_IP_93;Silistea;['INET_IP_93'];['INET_N_954'];43.8155851;28.2176216;RO;;{'end_year': 2050, 'pipe_name': None, 'start_year': 1983};{'end_year': 20, 'pipe_name': None, 'start_year': 20};{'end_year': 'make_Attrib(const)', 'pipe_name': None, 'start_year': 'make_Attrib(const)'};{}
INET_IP_94;Strandja;['INET_IP_94'];['INET_N_60'];42.1825;27.008611;BG;Srtandszha;{'end_year': 2050, 'pipe_name': None, 'start_year': 1983};{'end_year': 20, 'pipe_name': None, 'start_year': 20};{'end_year': 'make_Attrib(const)', 'pipe_name': None, 'start_year': 'make_Attrib(const)'};{}
INET_IP_95;Takovo;['INET_IP_95'];['INET_N_977'];44.79;20.44;RS;;{'end_year': 2050, 'pipe_name': None, 'start_year': 1983};{'end_year': 20, 'pipe_name': None, 'start_year': 20};{'end_year': 'make_Attrib(const)', 'pipe_name': None, 'start_year': 'make_Attrib(const)'};{}
INET_IP_96;Tarvisio;['INET_IP_96'];['INET_N_779'];46.505528;13.592806;IT;;{'end_year': 2050, 'pipe_name': None, 'start_year': 1983};{'end_year': 20, 'pipe_name': None, 'start_year': 20};{'end_year': 'make_Attrib(const)', 'pipe_name': None, 'start_year': 'make_Attrib(const)'};{}
INET_IP_97;Trzac;['INET_IP_97'];['INET_N_617'];45.41;15.28;BA;;{'end_year': 2050, 'pipe_name': None, 'start_year': 1983};{'end_year': 20, 'pipe_name': None, 'start_year': 20};{'end_year': 'make_Attrib(const)', 'pipe_name': None, 'start_year': 'make_Attrib(const)'};{}
INET_IP_98;Tuy;['INET_IP_98'];['INET_N_358'];42.155953;-8.632403;ES;;{'end_year': 2050, 'pipe_name': None, 'start_year': 1983};{'end_year': 20, 'pipe_name': None, 'start_year': 20};{'end_year': 'make_Attrib(const)', 'pipe_name': None, 'start_year': 'make_Attrib(const)'};{}
INET_IP_99;Ueberackern;['INET_IP_99'];['INET_N_135'];48.17;12.826;AT;;{'end_year': 2050, 'pipe_name': None, 'start_year': 1983};{'end_year': 20, 'pipe_name': None, 'start_year': 20};{'end_year': 'make_Attrib(const)', 'pipe_name': None, 'start_year': 'make_Attrib(const)'};{}
INET_IP_100;Umag Rijeka;['INET_IP_100'];['INET_N_766'];45.862614;13.438999;HR;;{'end_year': 2050, 'pipe_name': None, 'start_year': 1983};{'end_year': 20, 'pipe_name': None, 'start_year': 20};{'end_year': 'make_Attrib(const)', 'pipe_name': None, 'start_year': 'make_Attrib(const)'};{}
INET_IP_101;Uzhgorod;['INET_IP_101'];['INET_N_1075'];48.6208;22.287883;UA;;{'end_year': 2050, 'pipe_name': None, 'start_year': 1983};{'end_year': 20, 'pipe_name': None, 'start_year': 20};{'end_year': 'make_Attrib(const)', 'pipe_name': None, 'start_year': 'make_Attrib(const)'};{}
INET_IP_102;Vale De Frades;['INET_IP_102'];['INET_N_351'];41.506;-5.644;PT;;{'end_year': 2050, 'pipe_name': None, 'start_year': 1983};{'end_year': 20, 'pipe_name': None, 'start_year': 20};{'end_year': 'make_Attrib(const)', 'pipe_name': None, 'start_year': 'make_Attrib(const)'};{}
INET_IP_103;Valenca Do Minho;['INET_IP_103'];['INET_N_953'];42.0248024;-8.6398019;PT;;{'end_year': 2050, 'pipe_name': None, 'start_year': 1983};{'end_year': 20, 'pipe_name': None, 'start_year': 20};{'end_year': 'make_Attrib(const)', 'pipe_name': None, 'start_year': 'make_Attrib(const)'};{}
INET_IP_104;Varska;['INET_IP_104'];['INET_N_302'];57.9570536;27.6375433;EE;;{'end_year': 2050, 'pipe_name': None, 'start_year': 1983};{'end_year': 20, 'pipe_name': None, 'start_year': 20};{'end_year': 'make_Attrib(const)', 'pipe_name': None, 'start_year': 'make_Attrib(const)'};{}
INET_IP_105;Vodice;['INET_IP_105'];['INET_N_1035'];46.058;14.5;SK;;{'end_year': 2050, 'pipe_name': None, 'start_year': 1983};{'end_year': 20, 'pipe_name': None, 'start_year': 20};{'end_year': 'make_Attrib(const)', 'pipe_name': None, 'start_year': 'make_Attrib(const)'};{}
INET_IP_106;Vyborg;['INET_IP_106'];['INET_N_386'];61.1695977;28.7645463;RU;;{'end_year': 2050, 'pipe_name': None, 'start_year': 1983};{'end_year': 20, 'pipe_name': None, 'start_year': 20};{'end_year': 'make_Attrib(const)', 'pipe_name': None, 'start_year': 'make_Attrib(const)'};{}
INET_IP_107;Waidhaus;['INET_IP_107'];['INET_N_163'];49.644;12.496;DE;;{'end_year': 2050, 'pipe_name': 'MEGAL', 'start_year': 1983};{'end_year': 20, 'pipe_name': 0, 'start_year': 20};{'end_year': 'make_Attrib(const)', 'pipe_name': 'raw', 'start_year': 'make_Attrib(const)'};{}
INET_IP_108;Wallbach;['INET_IP_108'];['INET_N_120'];47.566;7.9;DE;;{'end_year': 2050, 'pipe_name': None, 'start_year': 1983};{'end_year': 20, 'pipe_name': None, 'start_year': 20};{'end_year': 'make_Attrib(const)', 'pipe_name': None, 'start_year': 'make_Attrib(const)'};{}
INET_IP_109;Winterswijk;['INET_IP_109'];['INET_N_219'];52.175948;7.006152;NL;;{'end_year': 2050, 'pipe_name': None, 'start_year': 1983};{'end_year': 20, 'pipe_name': None, 'start_year': 20};{'end_year': 'make_Attrib(const)', 'pipe_name': None, 'start_year': 'make_Attrib(const)'};{}
INET_IP_110;Wysokoje;['INET_IP_110'];['INET_N_81'];52.3696;23.371;BY;;{'end_year': 2050, 'pipe_name': None, 'start_year': 1983};{'end_year': 20, 'pipe_name': None, 'start_year': 20};{'end_year': 'make_Attrib(const)', 'pipe_name': None, 'start_year': 'make_Attrib(const)'};{}
INET_IP_111;Zajecar;['INET_IP_111'];['INET_N_973'];43.32;21.89;RS;;{'end_year': 2050, 'pipe_name': None, 'start_year': 1983};{'end_year': 20, 'pipe_name': None, 'start_year': 20};{'end_year': 'make_Attrib(const)', 'pipe_name': None, 'start_year': 'make_Attrib(const)'};{}
INET_IP_112;Zandvliet;['INET_IP_112'];['INET_N_833'];51.387;4.34;NL;;{'end_year': 2050, 'pipe_name': None, 'start_year': 1983};{'end_year': 20, 'pipe_name': None, 'start_year': 20};{'end_year': 'make_Attrib(const)', 'pipe_name': None, 'start_year': 'make_Attrib(const)'};{}
INET_IP_113;Zeebrugge;['INET_IP_113'];['INET_N_50'];51.323;3.213;BE;;{'end_year': 2050, 'pipe_name': None, 'start_year': 1983};{'end_year': 20, 'pipe_name': None, 'start_year': 20};{'end_year': 'make_Attrib(const)', 'pipe_name': None, 'start_year': 'make_Attrib(const)'};{}
INET_IP_114;Zelzate;['INET_IP_114'];['INET_N_47'];51.191166;3.827686;BE;;{'end_year': 2050, 'pipe_name': None, 'start_year': 1983};{'end_year': 20, 'pipe_name': None, 'start_year': 20};{'end_year': 'make_Attrib(const)', 'pipe_name': None, 'start_year': 'make_Attrib(const)'};{}
INET_IP_115;Zweekhorst;['INET_IP_115'];['INET_N_856'];51.9605323;6.0759819;NL;;{'end_year': 2050, 'pipe_name': None, 'start_year': 1983};{'end_year': 20, 'pipe_name': None, 'start_year': 20};{'end_year': 'make_Attrib(const)', 'pipe_name': None, 'start_year': 'make_Attrib(const)'};{}
INET_IP_116;Zhidilovo;['INET_IP_116'];['INET_N_817'];42.2242526;22.398599;MK;;{'end_year': 2050, 'pipe_name': None, 'start_year': 1983};{'end_year': 20, 'pipe_name': None, 'start_year': 20};{'end_year': 'make_Attrib(const)', 'pipe_name': None, 'start_year': 'make_Attrib(const)'};{}
INET_IP_117;Meric Nehri;['INET_IP_117'];['INET_N_1063'];40.980957;26.325508;TR;;{'end_year': 2050, 'pipe_name': None, 'start_year': 1983};{'end_year': 20, 'pipe_name': None, 'start_year': 20};{'end_year': 'make_Attrib(const)', 'pipe_name': None, 'start_year': 'make_Attrib(const)'};{}
