id;name;source_id;node_id;lat;long;country_code;comment;param;uncertainty;method;tags
INET_BP_0;Almeria;['INET_BP_0'];['INET_N_317'];36.7348;-2.3036;ES;;{'end_year': None, 'pipe_name': None, 'source': None, 'start_year': None};{'end_year': None, 'pipe_name': None, 'source': None, 'start_year': None};{'end_year': None, 'pipe_name': None, 'source': None, 'start_year': None};{}
INET_BP_1;Alveringem;['INET_BP_1'];['INET_N_45'];51.0123224;2.7095311;BE;;{'end_year': None, 'pipe_name': 'Alveringem-Maldegem pipeline', 'source': None, 'start_year': None};{'end_year': None, 'pipe_name': 0, 'source': None, 'start_year': None};{'end_year': None, 'pipe_name': 'raw', 'source': None, 'start_year': None};{}
INET_BP_2;Arnoldstein;['INET_BP_2'];['INET_N_6'];46.5499903;13.7057619;AT;;{'end_year': None, 'pipe_name': 'medgaz', 'source': None, 'start_year': None};{'end_year': None, 'pipe_name': 0, 'source': None, 'start_year': None};{'end_year': None, 'pipe_name': 'raw', 'source': None, 'start_year': None};{}
INET_BP_3;Backi Breg;['INET_BP_3'];['INET_N_984'];45.9166015;18.9673241;RS;;{'end_year': None, 'pipe_name': None, 'source': None, 'start_year': None};{'end_year': None, 'pipe_name': None, 'source': None, 'start_year': None};{'end_year': None, 'pipe_name': None, 'source': None, 'start_year': None};{}
INET_BP_4;Badajoz;['INET_BP_4'];['INET_N_334'];38.87665;-6.9714;ES;;{'end_year': None, 'pipe_name': None, 'source': None, 'start_year': None};{'end_year': None, 'pipe_name': None, 'source': None, 'start_year': None};{'end_year': None, 'pipe_name': None, 'source': None, 'start_year': None};{}
INET_BP_5;Balassagyarmat;['INET_BP_5'];['INET_N_1071'];48.0711866;19.2937136;UA;;{'end_year': None, 'pipe_name': 'Slovak-Hungarian Gas Interconnector', 'source': None, 'start_year': None};{'end_year': None, 'pipe_name': 0, 'source': None, 'start_year': None};{'end_year': None, 'pipe_name': 'raw', 'source': None, 'start_year': None};{}
INET_BP_6;Balgzand;['INET_BP_6'];['INET_N_877'];52.8982381;4.845275;NL;;{'end_year': None, 'pipe_name': None, 'source': None, 'start_year': None};{'end_year': None, 'pipe_name': None, 'source': None, 'start_year': None};{'end_year': None, 'pipe_name': None, 'source': None, 'start_year': None};{}
INET_BP_7;Ballylumford;['INET_BP_7'];['INET_N_559'];54.84019;-5.788932;GB;;{'end_year': None, 'pipe_name': None, 'source': None, 'start_year': None};{'end_year': None, 'pipe_name': None, 'source': None, 'start_year': None};{'end_year': None, 'pipe_name': None, 'source': None, 'start_year': None};{}
INET_BP_8;Basel;['INET_BP_8'];['INET_N_92'];47.5595986;7.5885761;CH;;{'end_year': None, 'pipe_name': None, 'source': None, 'start_year': None};{'end_year': None, 'pipe_name': None, 'source': None, 'start_year': None};{'end_year': None, 'pipe_name': None, 'source': None, 'start_year': None};{}
INET_BP_9;Baumgarten;['INET_BP_9'];['INET_N_24'];48.316295;16.875328;AT;;{'end_year': None, 'pipe_name': 'WAG', 'source': None, 'start_year': None};{'end_year': None, 'pipe_name': 0, 'source': None, 'start_year': None};{'end_year': None, 'pipe_name': 'raw', 'source': None, 'start_year': None};{}
INET_BP_10;Beregdaroc;['INET_BP_10'];['INET_N_636'];48.1985108;22.5320069;HU;;{'end_year': None, 'pipe_name': None, 'source': None, 'start_year': None};{'end_year': None, 'pipe_name': None, 'source': None, 'start_year': None};{'end_year': None, 'pipe_name': None, 'source': None, 'start_year': None};{}
INET_BP_11;Bibesti;['INET_BP_11'];['INET_N_962'];44.7815366;23.4907078;RO;;{'end_year': None, 'pipe_name': None, 'source': None, 'start_year': None};{'end_year': None, 'pipe_name': None, 'source': None, 'start_year': None};{'end_year': None, 'pipe_name': None, 'source': None, 'start_year': None};{}
INET_BP_12;Biriatou;['INET_BP_12'];['INET_N_394'];43.333204;-1.743022;FR;;{'end_year': None, 'pipe_name': None, 'source': None, 'start_year': None};{'end_year': None, 'pipe_name': None, 'source': None, 'start_year': None};{'end_year': None, 'pipe_name': None, 'source': None, 'start_year': None};{}
INET_BP_13;Bocholtz;['INET_BP_13'];['INET_N_821'];50.817365;6.021767;NL;;{'end_year': None, 'pipe_name': 'TENP', 'source': None, 'start_year': None};{'end_year': None, 'pipe_name': 0, 'source': None, 'start_year': None};{'end_year': None, 'pipe_name': 'raw', 'source': None, 'start_year': None};{}
INET_BP_14;Brandov;['INET_BP_14'];['INET_N_119'];50.635;13.39;CZ;;{'end_year': None, 'pipe_name': None, 'source': None, 'start_year': None};{'end_year': None, 'pipe_name': None, 'source': None, 'start_year': None};{'end_year': None, 'pipe_name': None, 'source': None, 'start_year': None};{}
INET_BP_15;Brighthouse;['INET_BP_15'];['INET_N_558'];54.78735;-4.12912;GB;;{'end_year': None, 'pipe_name': None, 'source': None, 'start_year': None};{'end_year': None, 'pipe_name': None, 'source': None, 'start_year': None};{'end_year': None, 'pipe_name': None, 'source': None, 'start_year': None};{}
INET_BP_16;Budince;['INET_BP_16'];['INET_N_1053'];48.5448153;22.1227244;SK;;{'end_year': None, 'pipe_name': 'Vojany-U?horod pipeline', 'source': None, 'start_year': None};{'end_year': None, 'pipe_name': 0, 'source': None, 'start_year': None};{'end_year': None, 'pipe_name': 'raw', 'source': None, 'start_year': None};{}
INET_BP_17;Burghausen;['INET_BP_17'];['INET_N_135'];48.17;12.826;DE;;{'end_year': None, 'pipe_name': 'MONACO', 'source': None, 'start_year': None};{'end_year': None, 'pipe_name': 0, 'source': None, 'start_year': None};{'end_year': None, 'pipe_name': 'raw', 'source': None, 'start_year': None};{}
INET_BP_18;Campo Maior;['INET_BP_18'];['INET_N_947'];38.982;-7.059;PT;;{'end_year': None, 'pipe_name': None, 'source': None, 'start_year': None};{'end_year': None, 'pipe_name': None, 'source': None, 'start_year': None};{'end_year': None, 'pipe_name': None, 'source': None, 'start_year': None};{}
INET_BP_19;Cersak;['INET_BP_19'];['INET_N_1038'];46.7007;15.666789;SI;;{'end_year': None, 'pipe_name': None, 'source': None, 'start_year': None};{'end_year': None, 'pipe_name': None, 'source': None, 'start_year': None};{'end_year': None, 'pipe_name': None, 'source': None, 'start_year': None};{}
INET_BP_20;Cordoba;['INET_BP_20'];['INET_N_327'];37.906;-4.68003;ES;;{'end_year': None, 'pipe_name': None, 'source': None, 'start_year': None};{'end_year': None, 'pipe_name': None, 'source': None, 'start_year': None};{'end_year': None, 'pipe_name': None, 'source': None, 'start_year': None};{}
INET_BP_21;Cordoba;['INET_BP_21'];['INET_N_327'];37.906;-4.68003;ES;;{'end_year': None, 'pipe_name': None, 'source': None, 'start_year': None};{'end_year': None, 'pipe_name': None, 'source': None, 'start_year': None};{'end_year': None, 'pipe_name': None, 'source': None, 'start_year': None};{}
INET_BP_22;Csanadpalota;['INET_BP_22'];['INET_N_1068'];46.2361111;20.7325;UA;;{'end_year': None, 'pipe_name': None, 'source': None, 'start_year': None};{'end_year': None, 'pipe_name': None, 'source': None, 'start_year': None};{'end_year': None, 'pipe_name': None, 'source': None, 'start_year': None};{}
INET_BP_23;Deutschneudorf;['INET_BP_23'];['INET_N_174'];50.621;13.473;DE;;{'end_year': None, 'pipe_name': None, 'source': None, 'start_year': None};{'end_year': None, 'pipe_name': None, 'source': None, 'start_year': None};{'end_year': None, 'pipe_name': None, 'source': None, 'start_year': None};{}
INET_BP_24;Dilsen;['INET_BP_24'];['INET_N_46'];51.03747;5.72215;BE;;{'end_year': None, 'pipe_name': None, 'source': None, 'start_year': None};{'end_year': None, 'pipe_name': None, 'source': None, 'start_year': None};{'end_year': None, 'pipe_name': None, 'source': None, 'start_year': None};{}
INET_BP_25;Donji Miholac;['INET_BP_25'];['INET_N_623'];45.762142;18.1651379;HR;;{'end_year': None, 'pipe_name': 'Gas pipeline between Vrosfld-Slobodnica', 'source': None, 'start_year': None};{'end_year': None, 'pipe_name': 0, 'source': None, 'start_year': None};{'end_year': None, 'pipe_name': 'raw', 'source': None, 'start_year': None};{}
INET_BP_26;Dornum;['INET_BP_26'];['INET_N_274'];53.66;7.404;DE;;{'end_year': None, 'pipe_name': None, 'source': None, 'start_year': None};{'end_year': None, 'pipe_name': None, 'source': None, 'start_year': None};{'end_year': None, 'pipe_name': None, 'source': None, 'start_year': None};{}
INET_BP_27;Dravaszerdahely;['INET_BP_27'];['INET_N_1067'];45.8363562;18.1638527;UA;;{'end_year': None, 'pipe_name': None, 'source': None, 'start_year': None};{'end_year': None, 'pipe_name': None, 'source': None, 'start_year': None};{'end_year': None, 'pipe_name': None, 'source': None, 'start_year': None};{}
INET_BP_28;Drozdwicze;['INET_BP_28'];['INET_N_903'];49.8087968;23.6441847;PL;;{'end_year': None, 'pipe_name': None, 'source': None, 'start_year': None};{'end_year': None, 'pipe_name': None, 'source': None, 'start_year': None};{'end_year': None, 'pipe_name': None, 'source': None, 'start_year': None};{}
INET_BP_29;Dunkerque;['INET_BP_29'];['INET_N_481'];51.033134;2.194792;FR;;{'end_year': None, 'pipe_name': None, 'source': None, 'start_year': None};{'end_year': None, 'pipe_name': None, 'source': None, 'start_year': None};{'end_year': None, 'pipe_name': None, 'source': None, 'start_year': None};{}
INET_BP_30;Ellund;['INET_BP_30'];['INET_N_284'];54.801913;9.289;DE;;{'end_year': None, 'pipe_name': None, 'source': None, 'start_year': None};{'end_year': None, 'pipe_name': None, 'source': None, 'start_year': None};{'end_year': None, 'pipe_name': None, 'source': None, 'start_year': None};{}
INET_BP_31;Elten;['INET_BP_31'];['INET_N_210'];51.897037;6.144031;DE;;{'end_year': None, 'pipe_name': None, 'source': None, 'start_year': None};{'end_year': None, 'pipe_name': None, 'source': None, 'start_year': None};{'end_year': None, 'pipe_name': None, 'source': None, 'start_year': None};{}
INET_BP_32;Emden;['INET_BP_32'];['INET_N_264'];53.3594029;7.2060095;DE;;{'end_year': None, 'pipe_name': 'NPT, EPT', 'source': None, 'start_year': None};{'end_year': None, 'pipe_name': 0, 'source': None, 'start_year': None};{'end_year': None, 'pipe_name': 'raw', 'source': None, 'start_year': None};{}
INET_BP_33;Emsbueren;['INET_BP_33'];['INET_N_231'];52.3926684;7.2926853;DE;;{'end_year': None, 'pipe_name': None, 'source': None, 'start_year': None};{'end_year': None, 'pipe_name': None, 'source': None, 'start_year': None};{'end_year': None, 'pipe_name': None, 'source': None, 'start_year': None};{}
INET_BP_34;Eynatten;['INET_BP_34'];['INET_N_41'];50.7;6.09;BE;;{'end_year': None, 'pipe_name': None, 'source': None, 'start_year': None};{'end_year': None, 'pipe_name': None, 'source': None, 'start_year': None};{'end_year': None, 'pipe_name': None, 'source': None, 'start_year': None};{}
INET_BP_35;Fallentor;['INET_BP_35'];['INET_N_93'];47.658044;8.6948726;CH;;{'end_year': None, 'pipe_name': None, 'source': None, 'start_year': None};{'end_year': None, 'pipe_name': None, 'source': None, 'start_year': None};{'end_year': None, 'pipe_name': None, 'source': None, 'start_year': None};{}
INET_BP_36;Gela;['INET_BP_36'];['INET_N_656'];37.052698;14.269219;IT;;{'end_year': None, 'pipe_name': None, 'source': None, 'start_year': None};{'end_year': None, 'pipe_name': None, 'source': None, 'start_year': None};{'end_year': None, 'pipe_name': None, 'source': None, 'start_year': None};{}
INET_BP_37;Gorizia;['INET_BP_37'];['INET_N_768'];45.942831;13.619396;IT;;{'end_year': None, 'pipe_name': None, 'source': None, 'start_year': None};{'end_year': None, 'pipe_name': None, 'source': None, 'start_year': None};{'end_year': None, 'pipe_name': None, 'source': None, 'start_year': None};{}
INET_BP_38;Gravenvoeren;['INET_BP_38'];['INET_N_43'];50.7587829;5.7611628;BE;;{'end_year': None, 'pipe_name': None, 'source': None, 'start_year': None};{'end_year': None, 'pipe_name': None, 'source': None, 'start_year': None};{'end_year': None, 'pipe_name': None, 'source': None, 'start_year': None};{}
INET_BP_39;Haiming;['INET_BP_39'];['INET_N_136'];48.193991;12.851803;DE;;{'end_year': None, 'pipe_name': None, 'source': None, 'start_year': None};{'end_year': None, 'pipe_name': None, 'source': None, 'start_year': None};{'end_year': None, 'pipe_name': None, 'source': None, 'start_year': None};{}
INET_BP_40;Hermanowice;['INET_BP_40'];['INET_N_900'];49.7230552;22.8148987;PL;;{'end_year': None, 'pipe_name': None, 'source': None, 'start_year': None};{'end_year': None, 'pipe_name': None, 'source': None, 'start_year': None};{'end_year': None, 'pipe_name': None, 'source': None, 'start_year': None};{}
INET_BP_41;Hilvarenbeek;['INET_BP_41'];['INET_N_837'];51.4856827;5.1384062;NL;;{'end_year': None, 'pipe_name': None, 'source': None, 'start_year': None};{'end_year': None, 'pipe_name': None, 'source': None, 'start_year': None};{'end_year': None, 'pipe_name': None, 'source': None, 'start_year': None};{}
INET_BP_42;Hugelheim;['INET_BP_42'];['INET_N_126'];47.8302767;7.6210786;DE;;{'end_year': None, 'pipe_name': None, 'source': None, 'start_year': None};{'end_year': None, 'pipe_name': None, 'source': None, 'start_year': None};{'end_year': None, 'pipe_name': None, 'source': None, 'start_year': None};{}
INET_BP_43;Imatra;['INET_BP_43'];['INET_N_386'];61.1695977;28.7645463;FI;;{'end_year': None, 'pipe_name': None, 'source': None, 'start_year': None};{'end_year': None, 'pipe_name': None, 'source': None, 'start_year': None};{'end_year': None, 'pipe_name': None, 'source': None, 'start_year': None};{}
INET_BP_44;Inzenham;['INET_BP_44'];['INET_N_129'];47.8808712;12.2282127;DE;;{'end_year': None, 'pipe_name': None, 'source': None, 'start_year': None};{'end_year': None, 'pipe_name': None, 'source': None, 'start_year': None};{'end_year': None, 'pipe_name': None, 'source': None, 'start_year': None};{}
INET_BP_45;Isaccea;['INET_BP_45'];['INET_N_964'];45.265423;28.4607273;RO;;{'end_year': None, 'pipe_name': None, 'source': None, 'start_year': None};{'end_year': None, 'pipe_name': None, 'source': None, 'start_year': None};{'end_year': None, 'pipe_name': None, 'source': None, 'start_year': None};{}
INET_BP_46;Jura La Cure;['INET_BP_46'];['INET_N_438'];47.3444474;7.1430608;FR;;{'end_year': None, 'pipe_name': None, 'source': None, 'start_year': None};{'end_year': None, 'pipe_name': None, 'source': None, 'start_year': None};{'end_year': None, 'pipe_name': None, 'source': None, 'start_year': None};{}
INET_BP_47;Kardam;['INET_BP_47'];['INET_N_75'];43.7538009;28.1079003;BG;;{'end_year': None, 'pipe_name': None, 'source': None, 'start_year': None};{'end_year': None, 'pipe_name': None, 'source': None, 'start_year': None};{'end_year': None, 'pipe_name': None, 'source': None, 'start_year': None};{}
INET_BP_48;Karksi;['INET_BP_48'];['INET_N_303'];58.1002085;25.6293386;EE;;{'end_year': None, 'pipe_name': None, 'source': None, 'start_year': None};{'end_year': None, 'pipe_name': None, 'source': None, 'start_year': None};{'end_year': None, 'pipe_name': None, 'source': None, 'start_year': None};{}
INET_BP_49;Kiefersfelden;['INET_BP_49'];['INET_N_124'];47.6181459;12.1868662;DE;;{'end_year': None, 'pipe_name': None, 'source': None, 'start_year': None};{'end_year': None, 'pipe_name': None, 'source': None, 'start_year': None};{'end_year': None, 'pipe_name': None, 'source': None, 'start_year': None};{}
INET_BP_50;Kiemenai;['INET_BP_50'];['INET_N_802'];56.2502439;24.2909848;LT;;{'end_year': None, 'pipe_name': None, 'source': None, 'start_year': None};{'end_year': None, 'pipe_name': None, 'source': None, 'start_year': None};{'end_year': None, 'pipe_name': None, 'source': None, 'start_year': None};{}
INET_BP_51;Kipoi;['INET_BP_51'];['INET_N_605'];40.970417;26.307161;GR;;{'end_year': None, 'pipe_name': None, 'source': None, 'start_year': None};{'end_year': None, 'pipe_name': None, 'source': None, 'start_year': None};{'end_year': None, 'pipe_name': None, 'source': None, 'start_year': None};{}
INET_BP_52;Kiskundorozsma;['INET_BP_52'];['INET_N_625'];46.2730809;20.063011;HU;;{'end_year': None, 'pipe_name': None, 'source': None, 'start_year': None};{'end_year': None, 'pipe_name': None, 'source': None, 'start_year': None};{'end_year': None, 'pipe_name': None, 'source': None, 'start_year': None};{}
INET_BP_53;Kondratki;['INET_BP_53'];['INET_N_932'];53.01781;23.896413;PL;;{'end_year': None, 'pipe_name': 'Yamal', 'source': None, 'start_year': None};{'end_year': None, 'pipe_name': 0, 'source': None, 'start_year': None};{'end_year': None, 'pipe_name': 'raw', 'source': None, 'start_year': None};{}
INET_BP_54;Korneti;['INET_BP_54'];['INET_N_813'];57.5928519;26.9434759;LV;;{'end_year': None, 'pipe_name': 'Baltic Pipeline System', 'source': None, 'start_year': None};{'end_year': None, 'pipe_name': 0, 'source': None, 'start_year': None};{'end_year': None, 'pipe_name': 'raw', 'source': None, 'start_year': None};{}
INET_BP_55;Kotlovka;['INET_BP_55'];['INET_N_785'];54.716599;25.7475233;LT;;{'end_year': None, 'pipe_name': None, 'source': None, 'start_year': None};{'end_year': None, 'pipe_name': None, 'source': None, 'start_year': None};{'end_year': None, 'pipe_name': None, 'source': None, 'start_year': None};{}
INET_BP_56;Kulata;['INET_BP_56'];['INET_N_55'];41.3875814;23.3632506;BG;;{'end_year': None, 'pipe_name': None, 'source': None, 'start_year': None};{'end_year': None, 'pipe_name': None, 'source': None, 'start_year': None};{'end_year': None, 'pipe_name': None, 'source': None, 'start_year': None};{}
INET_BP_57;Kyustendil;['INET_BP_57'];['INET_N_64'];42.2868817;22.6939308;BG;;{'end_year': None, 'pipe_name': None, 'source': None, 'start_year': None};{'end_year': None, 'pipe_name': None, 'source': None, 'start_year': None};{'end_year': None, 'pipe_name': None, 'source': None, 'start_year': None};{}
INET_BP_58;Lanzhot;['INET_BP_58'];['INET_N_97'];48.734049;16.974274;CZ;;{'end_year': None, 'pipe_name': None, 'source': None, 'start_year': None};{'end_year': None, 'pipe_name': None, 'source': None, 'start_year': None};{'end_year': None, 'pipe_name': None, 'source': None, 'start_year': None};{}
INET_BP_59;Larrau;['INET_BP_59'];['INET_N_392'];43.018757;-0.955718;FR;;{'end_year': None, 'pipe_name': None, 'source': None, 'start_year': None};{'end_year': None, 'pipe_name': None, 'source': None, 'start_year': None};{'end_year': None, 'pipe_name': None, 'source': None, 'start_year': None};{}
INET_BP_60;Lasow;['INET_BP_60'];['INET_N_914'];51.2286263;15.0307916;PL;;{'end_year': None, 'pipe_name': None, 'source': None, 'start_year': None};{'end_year': None, 'pipe_name': None, 'source': None, 'start_year': None};{'end_year': None, 'pipe_name': None, 'source': None, 'start_year': None};{}
INET_BP_61;Lebus;['INET_BP_61'];['INET_N_232'];52.427;14.543;DE;;{'end_year': None, 'pipe_name': None, 'source': None, 'start_year': None};{'end_year': None, 'pipe_name': None, 'source': None, 'start_year': None};{'end_year': None, 'pipe_name': None, 'source': None, 'start_year': None};{}
INET_BP_62;Lindau;['INET_BP_62'];['INET_N_122'];47.5797815;9.6789333;DE;;{'end_year': None, 'pipe_name': None, 'source': None, 'start_year': None};{'end_year': None, 'pipe_name': None, 'source': None, 'start_year': None};{'end_year': None, 'pipe_name': None, 'source': None, 'start_year': None};{}
INET_BP_63;Loughshinny;['INET_BP_63'];['INET_N_651'];53.548;-6.084;IE;;{'end_year': None, 'pipe_name': None, 'source': None, 'start_year': None};{'end_year': None, 'pipe_name': None, 'source': None, 'start_year': None};{'end_year': None, 'pipe_name': None, 'source': None, 'start_year': None};{}
INET_BP_64;Loznica;['INET_BP_64'];['INET_N_976'];44.5313463;19.2067663;RS;;{'end_year': None, 'pipe_name': None, 'source': None, 'start_year': None};{'end_year': None, 'pipe_name': None, 'source': None, 'start_year': None};{'end_year': None, 'pipe_name': None, 'source': None, 'start_year': None};{}
INET_BP_65;Mallnow;['INET_BP_65'];['INET_N_234'];52.441781;14.47384;DE;;{'end_year': None, 'pipe_name': None, 'source': None, 'start_year': None};{'end_year': None, 'pipe_name': None, 'source': None, 'start_year': None};{'end_year': None, 'pipe_name': None, 'source': None, 'start_year': None};{}
INET_BP_66;Mazara Del Vallo;['INET_BP_66'];['INET_N_661'];37.65533;12.597628;IT;;{'end_year': None, 'pipe_name': 'TransMed', 'source': None, 'start_year': None};{'end_year': None, 'pipe_name': 0, 'source': None, 'start_year': None};{'end_year': None, 'pipe_name': 'raw', 'source': None, 'start_year': None};{}
INET_BP_67;Medelsheim;['INET_BP_67'];['INET_N_152'];49.144;7.27;DE;;{'end_year': None, 'pipe_name': 'MEGAL Nord', 'source': None, 'start_year': None};{'end_year': None, 'pipe_name': 0, 'source': None, 'start_year': None};{'end_year': None, 'pipe_name': 'raw', 'source': None, 'start_year': None};{}
INET_BP_68;Mediesu Aurit;['INET_BP_68'];['INET_N_972'];47.786743;23.1376644;RO;;{'end_year': None, 'pipe_name': None, 'source': None, 'start_year': None};{'end_year': None, 'pipe_name': None, 'source': None, 'start_year': None};{'end_year': None, 'pipe_name': None, 'source': None, 'start_year': None};{}
INET_BP_69;Mellitah;['INET_BP_69'];['INET_N_814'];32.8547005;12.2404869;LY;;{'end_year': None, 'pipe_name': 'Greenstream', 'source': None, 'start_year': None};{'end_year': None, 'pipe_name': 0, 'source': None, 'start_year': None};{'end_year': None, 'pipe_name': 'raw', 'source': None, 'start_year': None};{}
INET_BP_70;Meric Nehri;['INET_BP_70'];['INET_N_1063'];40.980957;26.325508;TR;;{'end_year': None, 'pipe_name': None, 'source': None, 'start_year': None};{'end_year': None, 'pipe_name': None, 'source': None, 'start_year': None};{'end_year': None, 'pipe_name': None, 'source': None, 'start_year': None};{}
INET_BP_71;Mosonmagyarovar;['INET_BP_71'];['INET_N_634'];47.8681469;17.2689169;HU;;{'end_year': None, 'pipe_name': None, 'source': None, 'start_year': None};{'end_year': None, 'pipe_name': None, 'source': None, 'start_year': None};{'end_year': None, 'pipe_name': None, 'source': None, 'start_year': None};{}
INET_BP_72;Murfeld;['INET_BP_72'];['INET_N_8'];46.71;15.67;AT;;{'end_year': None, 'pipe_name': None, 'source': None, 'start_year': None};{'end_year': None, 'pipe_name': None, 'source': None, 'start_year': None};{'end_year': None, 'pipe_name': None, 'source': None, 'start_year': None};{}
INET_BP_73;Narva;['INET_BP_73'];['INET_N_311'];59.3796931;28.1790751;EE;;{'end_year': None, 'pipe_name': None, 'source': None, 'start_year': None};{'end_year': None, 'pipe_name': None, 'source': None, 'start_year': None};{'end_year': None, 'pipe_name': None, 'source': None, 'start_year': None};{}
INET_BP_74;Negru Voda;['INET_BP_74'];['INET_N_954'];43.8155851;28.2176216;RO;;{'end_year': None, 'pipe_name': None, 'source': None, 'start_year': None};{'end_year': None, 'pipe_name': None, 'source': None, 'start_year': None};{'end_year': None, 'pipe_name': None, 'source': None, 'start_year': None};{}
INET_BP_75;Nemencine;['INET_BP_75'];['INET_N_787'];54.860443;25.3672514;LT;;{'end_year': None, 'pipe_name': None, 'source': None, 'start_year': None};{'end_year': None, 'pipe_name': None, 'source': None, 'start_year': None};{'end_year': None, 'pipe_name': None, 'source': None, 'start_year': None};{}
INET_BP_76;Nybro;['INET_BP_76'];['INET_N_294'];56.247698;8.878005;DK;;{'end_year': None, 'pipe_name': None, 'source': None, 'start_year': None};{'end_year': None, 'pipe_name': None, 'source': None, 'start_year': None};{'end_year': None, 'pipe_name': None, 'source': None, 'start_year': None};{}
INET_BP_77;Obbicht;['INET_BP_77'];['INET_N_825'];51.0280231;5.7812382;NL;;{'end_year': None, 'pipe_name': None, 'source': None, 'start_year': None};{'end_year': None, 'pipe_name': None, 'source': None, 'start_year': None};{'end_year': None, 'pipe_name': None, 'source': None, 'start_year': None};{}
INET_BP_78;Oberkappel;['INET_BP_78'];['INET_N_33'];48.55443;13.751863;AT;;{'end_year': None, 'pipe_name': None, 'source': None, 'start_year': None};{'end_year': None, 'pipe_name': None, 'source': None, 'start_year': None};{'end_year': None, 'pipe_name': None, 'source': None, 'start_year': None};{}
INET_BP_79;Olbernhau;['INET_BP_79'];['INET_N_176'];50.645421;13.359861;DE;;{'end_year': None, 'pipe_name': None, 'source': None, 'start_year': None};{'end_year': None, 'pipe_name': None, 'source': None, 'start_year': None};{'end_year': None, 'pipe_name': None, 'source': None, 'start_year': None};{}
INET_BP_80;Oltinigue;['INET_BP_80'];['INET_N_442'];47.492301;7.391487;FR;;{'end_year': None, 'pipe_name': None, 'source': None, 'start_year': None};{'end_year': None, 'pipe_name': None, 'source': None, 'start_year': None};{'end_year': None, 'pipe_name': None, 'source': None, 'start_year': None};{}
INET_BP_81;Orlovka;['INET_BP_81'];['INET_N_1066'];45.3199;28.45287;UA;;{'end_year': None, 'pipe_name': 'TENP', 'source': None, 'start_year': None};{'end_year': None, 'pipe_name': 0, 'source': None, 'start_year': None};{'end_year': None, 'pipe_name': 'raw', 'source': None, 'start_year': None};{}
INET_BP_82;Otranto;['INET_BP_82'];['INET_N_675'];40.1438978;18.4911678;IT;;{'end_year': None, 'pipe_name': None, 'source': None, 'start_year': None};{'end_year': None, 'pipe_name': None, 'source': None, 'start_year': None};{'end_year': None, 'pipe_name': None, 'source': None, 'start_year': None};{}
INET_BP_83;Oude Statenzijl;['INET_BP_83'];['INET_N_890'];53.2019;7.205;NL;;{'end_year': None, 'pipe_name': 'EPT, NPT', 'source': None, 'start_year': None};{'end_year': None, 'pipe_name': 0, 'source': None, 'start_year': None};{'end_year': None, 'pipe_name': 'raw', 'source': None, 'start_year': None};{}
INET_BP_84;Pakruojis;['INET_BP_84'];['INET_N_800'];55.9825873;23.8584483;LT;;{'end_year': None, 'pipe_name': None, 'source': None, 'start_year': None};{'end_year': None, 'pipe_name': None, 'source': None, 'start_year': None};{'end_year': None, 'pipe_name': None, 'source': None, 'start_year': None};{}
INET_BP_85;Passo Gries;['INET_BP_85'];['INET_N_776'];46.449851;8.366838;IT;;{'end_year': None, 'pipe_name': 'Transitgas Pipeline', 'source': None, 'start_year': None};{'end_year': None, 'pipe_name': 0, 'source': None, 'start_year': None};{'end_year': None, 'pipe_name': 'raw', 'source': None, 'start_year': None};{}
INET_BP_86;Petange;['INET_BP_86'];['INET_N_804'];49.5559747;5.8758655;LU;;{'end_year': None, 'pipe_name': None, 'source': None, 'start_year': None};{'end_year': None, 'pipe_name': None, 'source': None, 'start_year': None};{'end_year': None, 'pipe_name': None, 'source': None, 'start_year': None};{}
INET_BP_87;Pfronten;['INET_BP_87'];['INET_N_121'];47.5766418;10.5264351;DE;;{'end_year': None, 'pipe_name': None, 'source': None, 'start_year': None};{'end_year': None, 'pipe_name': None, 'source': None, 'start_year': None};{'end_year': None, 'pipe_name': None, 'source': None, 'start_year': None};{}
INET_BP_88;Piombino;['INET_BP_88'];['INET_N_710'];42.9256335;10.5258891;IT;;{'end_year': None, 'pipe_name': None, 'source': None, 'start_year': None};{'end_year': None, 'pipe_name': None, 'source': None, 'start_year': None};{'end_year': None, 'pipe_name': None, 'source': None, 'start_year': None};{}
INET_BP_89;Raeren;['INET_BP_89'];['INET_N_40'];50.6770198;6.1097331;BE;;{'end_year': None, 'pipe_name': None, 'source': None, 'start_year': None};{'end_year': None, 'pipe_name': None, 'source': None, 'start_year': None};{'end_year': None, 'pipe_name': None, 'source': None, 'start_year': None};{}
INET_BP_90;Remich;['INET_BP_90'];['INET_N_803'];49.545017;6.3674222;LU;;{'end_year': None, 'pipe_name': None, 'source': None, 'start_year': None};{'end_year': None, 'pipe_name': None, 'source': None, 'start_year': None};{'end_year': None, 'pipe_name': None, 'source': None, 'start_year': None};{}
INET_BP_91;Rogatec;['INET_BP_91'];['INET_N_1041'];46.2258891;15.7000312;SK;;{'end_year': None, 'pipe_name': None, 'source': None, 'start_year': None};{'end_year': None, 'pipe_name': None, 'source': None, 'start_year': None};{'end_year': None, 'pipe_name': None, 'source': None, 'start_year': None};{}
INET_BP_92;Sakiai;['INET_BP_92'];['INET_N_790'];54.952671;23.0480199;LT;;{'end_year': None, 'pipe_name': None, 'source': None, 'start_year': None};{'end_year': None, 'pipe_name': None, 'source': None, 'start_year': None};{'end_year': None, 'pipe_name': None, 'source': None, 'start_year': None};{}
INET_BP_93;Sempeter;['INET_BP_93'];['INET_N_1034'];45.9266;13.65005;SI;;{'end_year': None, 'pipe_name': None, 'source': None, 'start_year': None};{'end_year': None, 'pipe_name': None, 'source': None, 'start_year': None};{'end_year': None, 'pipe_name': None, 'source': None, 'start_year': None};{}
INET_BP_94;Sidirokastron;['INET_BP_94'];['INET_N_609'];41.2349471;23.3938203;GR;;{'end_year': None, 'pipe_name': None, 'source': None, 'start_year': None};{'end_year': None, 'pipe_name': None, 'source': None, 'start_year': None};{'end_year': None, 'pipe_name': None, 'source': None, 'start_year': None};{}
INET_BP_95;Silistea;['INET_BP_95'];['INET_N_959'];44.4004266;28.1771147;RO;;{'end_year': None, 'pipe_name': None, 'source': None, 'start_year': None};{'end_year': None, 'pipe_name': None, 'source': None, 'start_year': None};{'end_year': None, 'pipe_name': None, 'source': None, 'start_year': None};{}
INET_BP_96;Strandja;['INET_BP_96'];['INET_N_60'];42.1825;27.008611;BG;Srtandszha;{'end_year': None, 'pipe_name': None, 'source': None, 'start_year': None};{'end_year': None, 'pipe_name': None, 'source': None, 'start_year': None};{'end_year': None, 'pipe_name': None, 'source': None, 'start_year': None};{}
INET_BP_97;Takovo;['INET_BP_97'];['INET_N_975'];44.0368836;20.387069;RS;;{'end_year': None, 'pipe_name': None, 'source': None, 'start_year': None};{'end_year': None, 'pipe_name': None, 'source': None, 'start_year': None};{'end_year': None, 'pipe_name': None, 'source': None, 'start_year': None};{}
INET_BP_98;Tarvisio;['INET_BP_98'];['INET_N_779'];46.505528;13.592806;IT;;{'end_year': None, 'pipe_name': None, 'source': None, 'start_year': None};{'end_year': None, 'pipe_name': None, 'source': None, 'start_year': None};{'end_year': None, 'pipe_name': None, 'source': None, 'start_year': None};{}
INET_BP_99;Trzac;['INET_BP_99'];['INET_N_35'];44.9976747;15.7846558;BA;;{'end_year': None, 'pipe_name': None, 'source': None, 'start_year': None};{'end_year': None, 'pipe_name': None, 'source': None, 'start_year': None};{'end_year': None, 'pipe_name': None, 'source': None, 'start_year': None};{}
INET_BP_100;Tuy;['INET_BP_100'];['INET_N_358'];42.155953;-8.632403;ES;;{'end_year': None, 'pipe_name': None, 'source': None, 'start_year': None};{'end_year': None, 'pipe_name': None, 'source': None, 'start_year': None};{'end_year': None, 'pipe_name': None, 'source': None, 'start_year': None};{}
INET_BP_101;Ueberackern;['INET_BP_101'];['INET_N_22'];48.1928972;12.8747485;AT;;{'end_year': None, 'pipe_name': None, 'source': None, 'start_year': None};{'end_year': None, 'pipe_name': None, 'source': None, 'start_year': None};{'end_year': None, 'pipe_name': None, 'source': None, 'start_year': None};{}
INET_BP_102;Umag Rijeka;['INET_BP_102'];['INET_N_618'];45.4314032;13.5296337;HR;;{'end_year': None, 'pipe_name': None, 'source': None, 'start_year': None};{'end_year': None, 'pipe_name': None, 'source': None, 'start_year': None};{'end_year': None, 'pipe_name': None, 'source': None, 'start_year': None};{}
INET_BP_103;Uzhgorod;['INET_BP_103'];['INET_N_1075'];48.6208;22.287883;UA;;{'end_year': None, 'pipe_name': None, 'source': None, 'start_year': None};{'end_year': None, 'pipe_name': None, 'source': None, 'start_year': None};{'end_year': None, 'pipe_name': None, 'source': None, 'start_year': None};{}
INET_BP_104;Vale De Frades;['INET_BP_104'];['INET_N_952'];41.6278474;-6.482318;PT;;{'end_year': None, 'pipe_name': None, 'source': None, 'start_year': None};{'end_year': None, 'pipe_name': None, 'source': None, 'start_year': None};{'end_year': None, 'pipe_name': None, 'source': None, 'start_year': None};{}
INET_BP_105;Valenca Do Minho;['INET_BP_105'];['INET_N_953'];42.0248024;-8.6398019;PT;;{'end_year': None, 'pipe_name': None, 'source': None, 'start_year': None};{'end_year': None, 'pipe_name': None, 'source': None, 'start_year': None};{'end_year': None, 'pipe_name': None, 'source': None, 'start_year': None};{}
INET_BP_106;Varska;['INET_BP_106'];['INET_N_302'];57.9570536;27.6375433;EE;;{'end_year': None, 'pipe_name': None, 'source': None, 'start_year': None};{'end_year': None, 'pipe_name': None, 'source': None, 'start_year': None};{'end_year': None, 'pipe_name': None, 'source': None, 'start_year': None};{}
INET_BP_107;Vodice;['INET_BP_107'];['INET_N_1040'];46.1896643;14.4938539;SK;;{'end_year': None, 'pipe_name': None, 'source': None, 'start_year': None};{'end_year': None, 'pipe_name': None, 'source': None, 'start_year': None};{'end_year': None, 'pipe_name': None, 'source': None, 'start_year': None};{}
INET_BP_108;Vyborg;['INET_BP_108'];['INET_N_1013'];60.7139529;28.7571571;RU;;{'end_year': None, 'pipe_name': None, 'source': None, 'start_year': None};{'end_year': None, 'pipe_name': None, 'source': None, 'start_year': None};{'end_year': None, 'pipe_name': None, 'source': None, 'start_year': None};{}
INET_BP_109;Waidhaus;['INET_BP_109'];['INET_N_163'];49.644;12.496;DE;;{'end_year': None, 'pipe_name': 'MEGAL', 'source': None, 'start_year': None};{'end_year': None, 'pipe_name': 0, 'source': None, 'start_year': None};{'end_year': None, 'pipe_name': 'raw', 'source': None, 'start_year': None};{}
INET_BP_110;Wallbach;['INET_BP_110'];['INET_N_120'];47.566;7.9;DE;;{'end_year': None, 'pipe_name': None, 'source': None, 'start_year': None};{'end_year': None, 'pipe_name': None, 'source': None, 'start_year': None};{'end_year': None, 'pipe_name': None, 'source': None, 'start_year': None};{}
INET_BP_111;Winterswijk;['INET_BP_111'];['INET_N_858'];51.977038;6.7454136;NL;;{'end_year': None, 'pipe_name': None, 'source': None, 'start_year': None};{'end_year': None, 'pipe_name': None, 'source': None, 'start_year': None};{'end_year': None, 'pipe_name': None, 'source': None, 'start_year': None};{}
INET_BP_112;Wysokoje;['INET_BP_112'];['INET_N_81'];52.3696;23.371;BY;;{'end_year': None, 'pipe_name': None, 'source': None, 'start_year': None};{'end_year': None, 'pipe_name': None, 'source': None, 'start_year': None};{'end_year': None, 'pipe_name': None, 'source': None, 'start_year': None};{}
INET_BP_113;Zajecar;['INET_BP_113'];['INET_N_974'];43.9015048;22.2738011;RS;;{'end_year': None, 'pipe_name': None, 'source': None, 'start_year': None};{'end_year': None, 'pipe_name': None, 'source': None, 'start_year': None};{'end_year': None, 'pipe_name': None, 'source': None, 'start_year': None};{}
INET_BP_114;Zandvliet;['INET_BP_114'];['INET_N_832'];51.35965;4.30716;NL;;{'end_year': None, 'pipe_name': None, 'source': None, 'start_year': None};{'end_year': None, 'pipe_name': None, 'source': None, 'start_year': None};{'end_year': None, 'pipe_name': None, 'source': None, 'start_year': None};{}
INET_BP_115;Zeebrugge;['INET_BP_115'];['INET_N_50'];51.323;3.213;BE;;{'end_year': None, 'pipe_name': None, 'source': None, 'start_year': None};{'end_year': None, 'pipe_name': None, 'source': None, 'start_year': None};{'end_year': None, 'pipe_name': None, 'source': None, 'start_year': None};{}
INET_BP_116;Zelzate;['INET_BP_116'];['INET_N_47'];51.191166;3.827686;BE;;{'end_year': None, 'pipe_name': None, 'source': None, 'start_year': None};{'end_year': None, 'pipe_name': None, 'source': None, 'start_year': None};{'end_year': None, 'pipe_name': None, 'source': None, 'start_year': None};{}
INET_BP_117;Zweekhorst;['INET_BP_117'];['INET_N_856'];51.9605323;6.0759819;NL;;{'end_year': None, 'pipe_name': None, 'source': None, 'start_year': None};{'end_year': None, 'pipe_name': None, 'source': None, 'start_year': None};{'end_year': None, 'pipe_name': None, 'source': None, 'start_year': None};{}
INET_BP_118;Zhidilovo;['INET_BP_118'];['INET_N_817'];42.2242526;22.398599;MK;;{'end_year': None, 'pipe_name': None, 'source': None, 'start_year': None};{'end_year': None, 'pipe_name': None, 'source': None, 'start_year': None};{'end_year': None, 'pipe_name': None, 'source': None, 'start_year': None};{}
