id;name;source_id;node_id;lat;long;country_code;comment;param;uncertainty;method;tags
INET_IP_0;Almeria;['INET_IP_0'];['SEQ_5555_p'];36.67306;-2.21645;XX;None;{'end_year': 2050, 'exact': 3, 'start_year': 1983};{'end_year': 20, 'exact': 0, 'start_year': 20};{'end_year': 'make_Attrib(const)', 'exact': 'make_Attrib(const)', 'start_year': 'make_Attrib(const)'};{}
INET_IP_1;Alveringem;['INET_IP_1'];['SEQ_1041_p'];51.01642;2.8213;BE;None;{'end_year': 2050, 'exact': 3, 'start_year': 1983};{'end_year': 20, 'exact': 0, 'start_year': 20};{'end_year': 'make_Attrib(const)', 'exact': 'make_Attrib(const)', 'start_year': 'make_Attrib(const)'};{}
INET_IP_2;Arnoldstein;['INET_IP_2'];['INET_N_76'];46.54999;13.70576;AT;None;{'end_year': 2050, 'exact': 3, 'start_year': 1983};{'end_year': 20, 'exact': 0, 'start_year': 20};{'end_year': 'make_Attrib(const)', 'exact': 'make_Attrib(const)', 'start_year': 'make_Attrib(const)'};{}
INET_IP_3;Backi Breg;['INET_IP_3'];['SEQ_1674_p'];46.09571;18.7383;RS;None;{'end_year': 2050, 'exact': 3, 'start_year': 1983};{'end_year': 20, 'exact': 0, 'start_year': 20};{'end_year': 'make_Attrib(const)', 'exact': 'make_Attrib(const)', 'start_year': 'make_Attrib(const)'};{}
INET_IP_4;Badajoz;['INET_IP_4'];['SEQ_2693_p'];38.85621;-6.89401;ES;None;{'end_year': 2050, 'exact': 3, 'start_year': 1983};{'end_year': 20, 'exact': 0, 'start_year': 20};{'end_year': 'make_Attrib(const)', 'exact': 'make_Attrib(const)', 'start_year': 'make_Attrib(const)'};{}
INET_IP_5;Balassagyarmat;['INET_IP_5'];['SEQ_376_p'];48.06674;19.26114;SK;None;{'end_year': 2050, 'exact': 3, 'start_year': 1983};{'end_year': 20, 'exact': 0, 'start_year': 20};{'end_year': 'make_Attrib(const)', 'exact': 'make_Attrib(const)', 'start_year': 'make_Attrib(const)'};{}
INET_IP_6;Balgzand;['INET_IP_6'];['N_320_NS_LMGN'];52.85142;4.84876;NL;None;{'end_year': 2050, 'exact': 3, 'start_year': 1983};{'end_year': 20, 'exact': 0, 'start_year': 20};{'end_year': 'make_Attrib(const)', 'exact': 'make_Attrib(const)', 'start_year': 'make_Attrib(const)'};{}
INET_IP_7;Ballylumford;['INET_IP_7'];['INET_N_120'];54.8428;-5.78422;GB;None;{'end_year': 2050, 'exact': 3, 'start_year': 1983};{'end_year': 20, 'exact': 0, 'start_year': 20};{'end_year': 'make_Attrib(const)', 'exact': 'make_Attrib(const)', 'start_year': 'make_Attrib(const)'};{}
INET_IP_8;Basel;['INET_IP_8'];['LKD_N_671'];47.56344;7.67359;CH;None;{'end_year': 2050, 'exact': 3, 'start_year': 1983};{'end_year': 20, 'exact': 0, 'start_year': 20};{'end_year': 'make_Attrib(const)', 'exact': 'make_Attrib(const)', 'start_year': 'make_Attrib(const)'};{}
INET_IP_9;Baumgarten;['INET_IP_9'];['N_212_L_LMGN'];48.36282;16.76913;AT;None;{'end_year': 2050, 'exact': 3, 'start_year': 1983};{'end_year': 20, 'exact': 0, 'start_year': 20};{'end_year': 'make_Attrib(const)', 'exact': 'make_Attrib(const)', 'start_year': 'make_Attrib(const)'};{}
INET_IP_10;Beregdaroc;['INET_IP_10'];['SEQ_4057_p'];48.18885;22.59206;HU;None;{'end_year': 2050, 'exact': 3, 'start_year': 1983};{'end_year': 20, 'exact': 0, 'start_year': 20};{'end_year': 'make_Attrib(const)', 'exact': 'make_Attrib(const)', 'start_year': 'make_Attrib(const)'};{}
INET_IP_11;Bibesti;['INET_IP_11'];['N_208_S_LMGN'];44.74909;23.54231;RO;None;{'end_year': 2050, 'exact': 3, 'start_year': 1983};{'end_year': 20, 'exact': 0, 'start_year': 20};{'end_year': 'make_Attrib(const)', 'exact': 'make_Attrib(const)', 'start_year': 'make_Attrib(const)'};{}
INET_IP_12;Biriatou;['INET_IP_12'];['SEQ_8778_p'];43.30877;-1.71111;FR;None;{'end_year': 2050, 'exact': 3, 'start_year': 1983};{'end_year': 20, 'exact': 0, 'start_year': 20};{'end_year': 'make_Attrib(const)', 'exact': 'make_Attrib(const)', 'start_year': 'make_Attrib(const)'};{}
INET_IP_13;Bocholtz;['INET_IP_13'];['SEQ_11599_p'];50.7936;5.98559;DE;None;{'end_year': 2050, 'exact': 3, 'start_year': 1983};{'end_year': 20, 'exact': 0, 'start_year': 20};{'end_year': 'make_Attrib(const)', 'exact': 'make_Attrib(const)', 'start_year': 'make_Attrib(const)'};{}
INET_IP_14;Brandov;['INET_IP_14'];['LKD_N_91'];50.64598;13.38158;DE;None;{'end_year': 2050, 'exact': 3, 'start_year': 1983};{'end_year': 20, 'exact': 0, 'start_year': 20};{'end_year': 'make_Attrib(const)', 'exact': 'make_Attrib(const)', 'start_year': 'make_Attrib(const)'};{}
INET_IP_15;Brighthouse;['INET_IP_15'];['SEQ_1169_p'];54.81249;-4.10175;GB;None;{'end_year': 2050, 'exact': 3, 'start_year': 1983};{'end_year': 20, 'exact': 0, 'start_year': 20};{'end_year': 'make_Attrib(const)', 'exact': 'make_Attrib(const)', 'start_year': 'make_Attrib(const)'};{}
INET_IP_16;Budince;['INET_IP_16'];['INET_N_1561'];48.54841;22.12217;SK;None;{'end_year': 2050, 'exact': 3, 'start_year': 1983};{'end_year': 20, 'exact': 0, 'start_year': 20};{'end_year': 'make_Attrib(const)', 'exact': 'make_Attrib(const)', 'start_year': 'make_Attrib(const)'};{}
INET_IP_17;Burghausen;['INET_IP_17'];['N_2631_S_LMGN'];48.19149;12.86101;AT;None;{'end_year': 2050, 'exact': 3, 'start_year': 1983};{'end_year': 20, 'exact': 0, 'start_year': 20};{'end_year': 'make_Attrib(const)', 'exact': 'make_Attrib(const)', 'start_year': 'make_Attrib(const)'};{}
INET_IP_18;Campo Maior;['INET_IP_18'];['SEQ_2692_p'];38.95729;-7.20273;PT;None;{'end_year': 2050, 'exact': 3, 'start_year': 1983};{'end_year': 20, 'exact': 0, 'start_year': 20};{'end_year': 'make_Attrib(const)', 'exact': 'make_Attrib(const)', 'start_year': 'make_Attrib(const)'};{}
INET_IP_19;Cersak;['INET_IP_19'];['SEQ_559_p'];46.72824;15.7671;AT;None;{'end_year': 2050, 'exact': 3, 'start_year': 1983};{'end_year': 20, 'exact': 0, 'start_year': 20};{'end_year': 'make_Attrib(const)', 'exact': 'make_Attrib(const)', 'start_year': 'make_Attrib(const)'};{}
INET_IP_20;Cordoba;['INET_IP_20'];['N_564_M_LMGN'];37.82964;-4.68795;ES;None;{'end_year': 2050, 'exact': 3, 'start_year': 1983};{'end_year': 20, 'exact': 0, 'start_year': 20};{'end_year': 'make_Attrib(const)', 'exact': 'make_Attrib(const)', 'start_year': 'make_Attrib(const)'};{}
INET_IP_21;Cordoba;['INET_IP_21'];['N_564_M_LMGN'];37.82964;-4.68795;ES;None;{'end_year': 2050, 'exact': 3, 'start_year': 1983};{'end_year': 20, 'exact': 0, 'start_year': 20};{'end_year': 'make_Attrib(const)', 'exact': 'make_Attrib(const)', 'start_year': 'make_Attrib(const)'};{}
INET_IP_22;Csanadpalota;['INET_IP_22'];['SEQ_396_p'];46.21163;20.77967;HU;None;{'end_year': 2050, 'exact': 3, 'start_year': 1983};{'end_year': 20, 'exact': 0, 'start_year': 20};{'end_year': 'make_Attrib(const)', 'exact': 'make_Attrib(const)', 'start_year': 'make_Attrib(const)'};{}
INET_IP_23;Deutschneudorf;['INET_IP_23'];['N_2047_S_LMGN'];50.63739;13.52173;DE;None;{'end_year': 2050, 'exact': 3, 'start_year': 1983};{'end_year': 20, 'exact': 0, 'start_year': 20};{'end_year': 'make_Attrib(const)', 'exact': 'make_Attrib(const)', 'start_year': 'make_Attrib(const)'};{}
INET_IP_24;Dilsen;['INET_IP_24'];['SEQ_10253__M_LMGN'];51.02287;5.80138;BE;None;{'end_year': 2050, 'exact': 3, 'start_year': 1983};{'end_year': 20, 'exact': 0, 'start_year': 20};{'end_year': 'make_Attrib(const)', 'exact': 'make_Attrib(const)', 'start_year': 'make_Attrib(const)'};{}
INET_IP_25;Donji Miholac;['INET_IP_25'];['N_2633_S_LMGN'];45.76138;18.1601;HR;None;{'end_year': 2050, 'exact': 3, 'start_year': 1983};{'end_year': 20, 'exact': 0, 'start_year': 20};{'end_year': 'make_Attrib(const)', 'exact': 'make_Attrib(const)', 'start_year': 'make_Attrib(const)'};{}
INET_IP_26;Dornum;['INET_IP_26'];['LKD_N_161'];53.6525;7.41631;DE;None;{'end_year': 2050, 'exact': 3, 'start_year': 1983};{'end_year': 20, 'exact': 0, 'start_year': 20};{'end_year': 'make_Attrib(const)', 'exact': 'make_Attrib(const)', 'start_year': 'make_Attrib(const)'};{}
INET_IP_27;Dravaszerdahely;['INET_IP_27'];['N_2633_S_LMGN'];45.76138;18.1601;HU;None;{'end_year': 2050, 'exact': 3, 'start_year': 1983};{'end_year': 20, 'exact': 0, 'start_year': 20};{'end_year': 'make_Attrib(const)', 'exact': 'make_Attrib(const)', 'start_year': 'make_Attrib(const)'};{}
INET_IP_28;Drozdwicze;['INET_IP_28'];['SEQ_2014_p'];49.8607;23.59986;UA;None;{'end_year': 2050, 'exact': 3, 'start_year': 1983};{'end_year': 20, 'exact': 0, 'start_year': 20};{'end_year': 'make_Attrib(const)', 'exact': 'make_Attrib(const)', 'start_year': 'make_Attrib(const)'};{}
INET_IP_29;Dunkerque;['INET_IP_29'];['N_3_NS_LMGN'];51.03396;2.19267;XX;None;{'end_year': 2050, 'exact': 3, 'start_year': 1983};{'end_year': 20, 'exact': 0, 'start_year': 20};{'end_year': 'make_Attrib(const)', 'exact': 'make_Attrib(const)', 'start_year': 'make_Attrib(const)'};{}
INET_IP_30;Ellund;['INET_IP_30'];['INET_N_429'];54.80396;9.28701;DE;None;{'end_year': 2050, 'exact': 3, 'start_year': 1983};{'end_year': 20, 'exact': 0, 'start_year': 20};{'end_year': 'make_Attrib(const)', 'exact': 'make_Attrib(const)', 'start_year': 'make_Attrib(const)'};{}
INET_IP_31;Elten;['INET_IP_31'];['SEQ_11404_p'];51.86375;6.12728;NL;None;{'end_year': 2050, 'exact': 3, 'start_year': 1983};{'end_year': 20, 'exact': 0, 'start_year': 20};{'end_year': 'make_Attrib(const)', 'exact': 'make_Attrib(const)', 'start_year': 'make_Attrib(const)'};{}
INET_IP_32;Emden;['INET_IP_32'];['NO_N_19'];53.34383;7.1971;DE;None;{'end_year': 2050, 'exact': 3, 'start_year': 1983};{'end_year': 20, 'exact': 0, 'start_year': 20};{'end_year': 'make_Attrib(const)', 'exact': 'make_Attrib(const)', 'start_year': 'make_Attrib(const)'};{}
INET_IP_33;Emsbueren;['INET_IP_33'];['LKD_N_689'];52.35642;7.24015;DE;None;{'end_year': 2050, 'exact': 3, 'start_year': 1983};{'end_year': 20, 'exact': 0, 'start_year': 20};{'end_year': 'make_Attrib(const)', 'exact': 'make_Attrib(const)', 'start_year': 'make_Attrib(const)'};{}
INET_IP_34;Eynatten;['INET_IP_34'];['SEQ_11600_p'];50.70096;6.21729;BE;None;{'end_year': 2050, 'exact': 3, 'start_year': 1983};{'end_year': 20, 'exact': 0, 'start_year': 20};{'end_year': 'make_Attrib(const)', 'exact': 'make_Attrib(const)', 'start_year': 'make_Attrib(const)'};{}
INET_IP_35;Fallentor;['INET_IP_35'];['SEQ_11628_p'];47.64837;8.6492;CH;None;{'end_year': 2050, 'exact': 3, 'start_year': 1983};{'end_year': 20, 'exact': 0, 'start_year': 20};{'end_year': 'make_Attrib(const)', 'exact': 'make_Attrib(const)', 'start_year': 'make_Attrib(const)'};{}
INET_IP_36;Gela;['INET_IP_36'];['N_135_S_LMGN'];37.14335;14.19107;IT;None;{'end_year': 2050, 'exact': 3, 'start_year': 1983};{'end_year': 20, 'exact': 0, 'start_year': 20};{'end_year': 'make_Attrib(const)', 'exact': 'make_Attrib(const)', 'start_year': 'make_Attrib(const)'};{}
INET_IP_37;Gorizia;['INET_IP_37'];['SEQ_10633__M_LMGN'];45.93941;13.65387;SI;None;{'end_year': 2050, 'exact': 3, 'start_year': 1983};{'end_year': 20, 'exact': 0, 'start_year': 20};{'end_year': 'make_Attrib(const)', 'exact': 'make_Attrib(const)', 'start_year': 'make_Attrib(const)'};{}
INET_IP_38;Gravenvoeren;['INET_IP_38'];['SEQ_6521__M_LMGN'];50.75011;5.75499;BE;None;{'end_year': 2050, 'exact': 3, 'start_year': 1983};{'end_year': 20, 'exact': 0, 'start_year': 20};{'end_year': 'make_Attrib(const)', 'exact': 'make_Attrib(const)', 'start_year': 'make_Attrib(const)'};{}
INET_IP_39;Haiming;['INET_IP_39'];['N_2631_S_LMGN'];48.19149;12.86101;AT;None;{'end_year': 2050, 'exact': 3, 'start_year': 1983};{'end_year': 20, 'exact': 0, 'start_year': 20};{'end_year': 'make_Attrib(const)', 'exact': 'make_Attrib(const)', 'start_year': 'make_Attrib(const)'};{}
INET_IP_40;Hermanowice;['INET_IP_40'];['SEQ_2017_p'];49.66798;22.80371;PL;None;{'end_year': 2050, 'exact': 3, 'start_year': 1983};{'end_year': 20, 'exact': 0, 'start_year': 20};{'end_year': 'make_Attrib(const)', 'exact': 'make_Attrib(const)', 'start_year': 'make_Attrib(const)'};{}
INET_IP_41;Hilvarenbeek;['INET_IP_41'];['SEQ_8093__L_LMGN'];51.56386;5.2572;NL;None;{'end_year': 2050, 'exact': 3, 'start_year': 1983};{'end_year': 20, 'exact': 0, 'start_year': 20};{'end_year': 'make_Attrib(const)', 'exact': 'make_Attrib(const)', 'start_year': 'make_Attrib(const)'};{}
INET_IP_42;Hugelheim;['INET_IP_42'];['LKD_N_152'];47.83753;7.61274;DE;None;{'end_year': 2050, 'exact': 3, 'start_year': 1983};{'end_year': 20, 'exact': 0, 'start_year': 20};{'end_year': 'make_Attrib(const)', 'exact': 'make_Attrib(const)', 'start_year': 'make_Attrib(const)'};{}
INET_IP_43;Imatra;['INET_IP_43'];['SEQ_1946_p'];61.17337;28.71409;FI;None;{'end_year': 2050, 'exact': 3, 'start_year': 1983};{'end_year': 20, 'exact': 0, 'start_year': 20};{'end_year': 'make_Attrib(const)', 'exact': 'make_Attrib(const)', 'start_year': 'make_Attrib(const)'};{}
INET_IP_44;Inzenham;['INET_IP_44'];['INET_N_1255'];47.8561;12.1341;DE;None;{'end_year': 2050, 'exact': 3, 'start_year': 1983};{'end_year': 20, 'exact': 0, 'start_year': 20};{'end_year': 'make_Attrib(const)', 'exact': 'make_Attrib(const)', 'start_year': 'make_Attrib(const)'};{}
INET_IP_45;Isaccea;['INET_IP_45'];['SEQ_2421_p'];45.24272;28.49417;RO;None;{'end_year': 2050, 'exact': 3, 'start_year': 1983};{'end_year': 20, 'exact': 0, 'start_year': 20};{'end_year': 'make_Attrib(const)', 'exact': 'make_Attrib(const)', 'start_year': 'make_Attrib(const)'};{}
INET_IP_46;Jura La Cure;['INET_IP_46'];['N_2412_S_LMGN'];47.34316;7.39312;CH;None;{'end_year': 2050, 'exact': 3, 'start_year': 1983};{'end_year': 20, 'exact': 0, 'start_year': 20};{'end_year': 'make_Attrib(const)', 'exact': 'make_Attrib(const)', 'start_year': 'make_Attrib(const)'};{}
INET_IP_47;Kardam;['INET_IP_47'];['N_713_S_LMGN'];43.77018;27.96951;BG;None;{'end_year': 2050, 'exact': 3, 'start_year': 1983};{'end_year': 20, 'exact': 0, 'start_year': 20};{'end_year': 'make_Attrib(const)', 'exact': 'make_Attrib(const)', 'start_year': 'make_Attrib(const)'};{}
INET_IP_48;Karksi;['INET_IP_48'];['SEQ_5494_p'];58.07075;25.52384;EE;None;{'end_year': 2050, 'exact': 3, 'start_year': 1983};{'end_year': 20, 'exact': 0, 'start_year': 20};{'end_year': 'make_Attrib(const)', 'exact': 'make_Attrib(const)', 'start_year': 'make_Attrib(const)'};{}
INET_IP_49;Kiefersfelden;['INET_IP_49'];['SEQ_8973__S_LMGN'];47.6481;12.22717;DE;None;{'end_year': 2050, 'exact': 3, 'start_year': 1983};{'end_year': 20, 'exact': 0, 'start_year': 20};{'end_year': 'make_Attrib(const)', 'exact': 'make_Attrib(const)', 'start_year': 'make_Attrib(const)'};{}
INET_IP_50;Kiemenai;['INET_IP_50'];['SEQ_4931__M_LMGN'];56.22492;24.42295;LT;None;{'end_year': 2050, 'exact': 3, 'start_year': 1983};{'end_year': 20, 'exact': 0, 'start_year': 20};{'end_year': 'make_Attrib(const)', 'exact': 'make_Attrib(const)', 'start_year': 'make_Attrib(const)'};{}
INET_IP_51;Kipoi;['INET_IP_51'];['INET_N_952'];40.97174;26.30945;GR;None;{'end_year': 2050, 'exact': 3, 'start_year': 1983};{'end_year': 20, 'exact': 0, 'start_year': 20};{'end_year': 'make_Attrib(const)', 'exact': 'make_Attrib(const)', 'start_year': 'make_Attrib(const)'};{}
INET_IP_52;Kiskundorozsma;['INET_IP_52'];['SEQ_6715__M_LMGN'];46.28569;20.10466;HU;None;{'end_year': 2050, 'exact': 3, 'start_year': 1983};{'end_year': 20, 'exact': 0, 'start_year': 20};{'end_year': 'make_Attrib(const)', 'exact': 'make_Attrib(const)', 'start_year': 'make_Attrib(const)'};{}
INET_IP_53;Kondratki;['INET_IP_53'];['INET_N_775'];53.01781;23.89641;PL;None;{'end_year': 2050, 'exact': 3, 'start_year': 1983};{'end_year': 20, 'exact': 0, 'start_year': 20};{'end_year': 'make_Attrib(const)', 'exact': 'make_Attrib(const)', 'start_year': 'make_Attrib(const)'};{}
INET_IP_54;Korneti;['INET_IP_54'];['SEQ_2410_p'];57.5837;26.99581;LV;None;{'end_year': 2050, 'exact': 3, 'start_year': 1983};{'end_year': 20, 'exact': 0, 'start_year': 20};{'end_year': 'make_Attrib(const)', 'exact': 'make_Attrib(const)', 'start_year': 'make_Attrib(const)'};{}
INET_IP_55;Kotlovka;['INET_IP_55'];['N_11_L_LMGN'];54.81404;25.79474;BY;None;{'end_year': 2050, 'exact': 3, 'start_year': 1983};{'end_year': 20, 'exact': 0, 'start_year': 20};{'end_year': 'make_Attrib(const)', 'exact': 'make_Attrib(const)', 'start_year': 'make_Attrib(const)'};{}
INET_IP_56;Kulata;['INET_IP_56'];['SEQ_1179_p'];41.45463;23.18327;GR;None;{'end_year': 2050, 'exact': 3, 'start_year': 1983};{'end_year': 20, 'exact': 0, 'start_year': 20};{'end_year': 'make_Attrib(const)', 'exact': 'make_Attrib(const)', 'start_year': 'make_Attrib(const)'};{}
INET_IP_57;Kyustendil;['INET_IP_57'];['INET_N_805'];42.28688;22.69393;BG;None;{'end_year': 2050, 'exact': 3, 'start_year': 1983};{'end_year': 20, 'exact': 0, 'start_year': 20};{'end_year': 'make_Attrib(const)', 'exact': 'make_Attrib(const)', 'start_year': 'make_Attrib(const)'};{}
INET_IP_58;Lanzhot;['INET_IP_58'];['SEQ_323_p'];48.77895;17.04115;CZ;None;{'end_year': 2050, 'exact': 3, 'start_year': 1983};{'end_year': 20, 'exact': 0, 'start_year': 20};{'end_year': 'make_Attrib(const)', 'exact': 'make_Attrib(const)', 'start_year': 'make_Attrib(const)'};{}
INET_IP_59;Larrau;['INET_IP_59'];['SEQ_1732_p'];42.99799;-0.88551;FR;None;{'end_year': 2050, 'exact': 3, 'start_year': 1983};{'end_year': 20, 'exact': 0, 'start_year': 20};{'end_year': 'make_Attrib(const)', 'exact': 'make_Attrib(const)', 'start_year': 'make_Attrib(const)'};{}
INET_IP_60;Lasow;['INET_IP_60'];['LKD_N_323'];51.1465;14.97809;PL;None;{'end_year': 2050, 'exact': 3, 'start_year': 1983};{'end_year': 20, 'exact': 0, 'start_year': 20};{'end_year': 'make_Attrib(const)', 'exact': 'make_Attrib(const)', 'start_year': 'make_Attrib(const)'};{}
INET_IP_61;Lindau;['INET_IP_61'];['SEQ_11622_p'];47.53777;9.60093;DE;None;{'end_year': 2050, 'exact': 3, 'start_year': 1983};{'end_year': 20, 'exact': 0, 'start_year': 20};{'end_year': 'make_Attrib(const)', 'exact': 'make_Attrib(const)', 'start_year': 'make_Attrib(const)'};{}
INET_IP_62;Loughshinny;['INET_IP_62'];['N_628_M_LMGN'];53.54616;-6.28784;IE;None;{'end_year': 2050, 'exact': 3, 'start_year': 1983};{'end_year': 20, 'exact': 0, 'start_year': 20};{'end_year': 'make_Attrib(const)', 'exact': 'make_Attrib(const)', 'start_year': 'make_Attrib(const)'};{}
INET_IP_63;Loznica;['INET_IP_63'];['SEQ_8370_p'];44.58244;19.23111;RS;None;{'end_year': 2050, 'exact': 3, 'start_year': 1983};{'end_year': 20, 'exact': 0, 'start_year': 20};{'end_year': 'make_Attrib(const)', 'exact': 'make_Attrib(const)', 'start_year': 'make_Attrib(const)'};{}
INET_IP_64;Mallnow;['INET_IP_64'];['LKD_N_92'];52.427;14.543;DE;None;{'end_year': 2050, 'exact': 3, 'start_year': 1983};{'end_year': 20, 'exact': 0, 'start_year': 20};{'end_year': 'make_Attrib(const)', 'exact': 'make_Attrib(const)', 'start_year': 'make_Attrib(const)'};{}
INET_IP_65;Mazara Del Vallo;['INET_IP_65'];['SEQ_3395__L_LMGN'];37.68062;12.68026;IT;None;{'end_year': 2050, 'exact': 3, 'start_year': 1983};{'end_year': 20, 'exact': 0, 'start_year': 20};{'end_year': 'make_Attrib(const)', 'exact': 'make_Attrib(const)', 'start_year': 'make_Attrib(const)'};{}
INET_IP_66;Medelsheim;['INET_IP_66'];['SEQ_11569_p'];49.17536;7.29579;DE;None;{'end_year': 2050, 'exact': 3, 'start_year': 1983};{'end_year': 20, 'exact': 0, 'start_year': 20};{'end_year': 'make_Attrib(const)', 'exact': 'make_Attrib(const)', 'start_year': 'make_Attrib(const)'};{}
INET_IP_67;Mediesu Aurit;['INET_IP_67'];['SEQ_2076_p'];47.76483;23.20685;RO;None;{'end_year': 2050, 'exact': 3, 'start_year': 1983};{'end_year': 20, 'exact': 0, 'start_year': 20};{'end_year': 'make_Attrib(const)', 'exact': 'make_Attrib(const)', 'start_year': 'make_Attrib(const)'};{}
INET_IP_68;Mellitah;['INET_IP_68'];['SEQ_4783_p'];32.32657;12.55633;XX;None;{'end_year': 2050, 'exact': 3, 'start_year': 1983};{'end_year': 20, 'exact': 0, 'start_year': 20};{'end_year': 'make_Attrib(const)', 'exact': 'make_Attrib(const)', 'start_year': 'make_Attrib(const)'};{}
INET_IP_69;Mosonmagyarovar;['INET_IP_69'];['SEQ_844_p'];47.9024;17.21615;HU;None;{'end_year': 2050, 'exact': 3, 'start_year': 1983};{'end_year': 20, 'exact': 0, 'start_year': 20};{'end_year': 'make_Attrib(const)', 'exact': 'make_Attrib(const)', 'start_year': 'make_Attrib(const)'};{}
INET_IP_70;Murfeld;['INET_IP_70'];['SEQ_559_p'];46.72824;15.7671;AT;None;{'end_year': 2050, 'exact': 3, 'start_year': 1983};{'end_year': 20, 'exact': 0, 'start_year': 20};{'end_year': 'make_Attrib(const)', 'exact': 'make_Attrib(const)', 'start_year': 'make_Attrib(const)'};{}
INET_IP_71;Narva;['INET_IP_71'];['INET_N_1017'];59.37969;28.17908;EE;None;{'end_year': 2050, 'exact': 3, 'start_year': 1983};{'end_year': 20, 'exact': 0, 'start_year': 20};{'end_year': 'make_Attrib(const)', 'exact': 'make_Attrib(const)', 'start_year': 'make_Attrib(const)'};{}
INET_IP_72;Negru Voda;['INET_IP_72'];['N_713_S_LMGN'];43.77018;27.96951;RO;None;{'end_year': 2050, 'exact': 3, 'start_year': 1983};{'end_year': 20, 'exact': 0, 'start_year': 20};{'end_year': 'make_Attrib(const)', 'exact': 'make_Attrib(const)', 'start_year': 'make_Attrib(const)'};{}
INET_IP_73;Nemencine;['INET_IP_73'];['INET_N_1022'];54.86044;25.36725;LT;None;{'end_year': 2050, 'exact': 3, 'start_year': 1983};{'end_year': 20, 'exact': 0, 'start_year': 20};{'end_year': 'make_Attrib(const)', 'exact': 'make_Attrib(const)', 'start_year': 'make_Attrib(const)'};{}
INET_IP_74;Nybro;['INET_IP_74'];['SEQ_1274_p'];56.18374;9.27396;DK;None;{'end_year': 2050, 'exact': 3, 'start_year': 1983};{'end_year': 20, 'exact': 0, 'start_year': 20};{'end_year': 'make_Attrib(const)', 'exact': 'make_Attrib(const)', 'start_year': 'make_Attrib(const)'};{}
INET_IP_75;Obbicht;['INET_IP_75'];['SEQ_10253__M_LMGN'];51.02287;5.80138;NL;None;{'end_year': 2050, 'exact': 3, 'start_year': 1983};{'end_year': 20, 'exact': 0, 'start_year': 20};{'end_year': 'make_Attrib(const)', 'exact': 'make_Attrib(const)', 'start_year': 'make_Attrib(const)'};{}
INET_IP_76;Oberkappel;['INET_IP_76'];['INET_N_1072'];48.55443;13.75186;DE;None;{'end_year': 2050, 'exact': 3, 'start_year': 1983};{'end_year': 20, 'exact': 0, 'start_year': 20};{'end_year': 'make_Attrib(const)', 'exact': 'make_Attrib(const)', 'start_year': 'make_Attrib(const)'};{}
INET_IP_77;Olbernhau;['INET_IP_77'];['LKD_N_91'];50.64598;13.38158;DE;None;{'end_year': 2050, 'exact': 3, 'start_year': 1983};{'end_year': 20, 'exact': 0, 'start_year': 20};{'end_year': 'make_Attrib(const)', 'exact': 'make_Attrib(const)', 'start_year': 'make_Attrib(const)'};{}
INET_IP_78;Oltinigue;['INET_IP_78'];['SEQ_8173__M_LMGN'];47.46597;7.43854;FR;None;{'end_year': 2050, 'exact': 3, 'start_year': 1983};{'end_year': 20, 'exact': 0, 'start_year': 20};{'end_year': 'make_Attrib(const)', 'exact': 'make_Attrib(const)', 'start_year': 'make_Attrib(const)'};{}
INET_IP_79;Orlovka;['INET_IP_79'];['N_1964_S_LMGN'];45.35975;28.37447;UA;None;{'end_year': 2050, 'exact': 3, 'start_year': 1983};{'end_year': 20, 'exact': 0, 'start_year': 20};{'end_year': 'make_Attrib(const)', 'exact': 'make_Attrib(const)', 'start_year': 'make_Attrib(const)'};{}
INET_IP_80;Otranto;['INET_IP_80'];['N_530_S_LMGN'];40.11357;18.31413;IT;None;{'end_year': 2050, 'exact': 3, 'start_year': 1983};{'end_year': 20, 'exact': 0, 'start_year': 20};{'end_year': 'make_Attrib(const)', 'exact': 'make_Attrib(const)', 'start_year': 'make_Attrib(const)'};{}
INET_IP_81;Oude Statenzijl;['INET_IP_81'];['SEQ_7989__M_LMGN'];53.21049;7.18816;NL;None;{'end_year': 2050, 'exact': 3, 'start_year': 1983};{'end_year': 20, 'exact': 0, 'start_year': 20};{'end_year': 'make_Attrib(const)', 'exact': 'make_Attrib(const)', 'start_year': 'make_Attrib(const)'};{}
INET_IP_82;Pakruojis;['INET_IP_82'];['SEQ_6333__M_LMGN'];55.93233;23.94294;LT;None;{'end_year': 2050, 'exact': 3, 'start_year': 1983};{'end_year': 20, 'exact': 0, 'start_year': 20};{'end_year': 'make_Attrib(const)', 'exact': 'make_Attrib(const)', 'start_year': 'make_Attrib(const)'};{}
INET_IP_83;Passo Gries;['INET_IP_83'];['SEQ_5129__L_LMGN'];46.48966;8.30971;IT;None;{'end_year': 2050, 'exact': 3, 'start_year': 1983};{'end_year': 20, 'exact': 0, 'start_year': 20};{'end_year': 'make_Attrib(const)', 'exact': 'make_Attrib(const)', 'start_year': 'make_Attrib(const)'};{}
INET_IP_84;Petange;['INET_IP_84'];['SEQ_6547__M_LMGN'];49.55781;5.87693;LU;None;{'end_year': 2050, 'exact': 3, 'start_year': 1983};{'end_year': 20, 'exact': 0, 'start_year': 20};{'end_year': 'make_Attrib(const)', 'exact': 'make_Attrib(const)', 'start_year': 'make_Attrib(const)'};{}
INET_IP_85;Pfronten;['INET_IP_85'];['LKD_N_70'];47.56577;10.6071;DE;None;{'end_year': 2050, 'exact': 3, 'start_year': 1983};{'end_year': 20, 'exact': 0, 'start_year': 20};{'end_year': 'make_Attrib(const)', 'exact': 'make_Attrib(const)', 'start_year': 'make_Attrib(const)'};{}
INET_IP_86;Piombino;['INET_IP_86'];['SEQ_9402_p'];42.96976;10.59086;XX;None;{'end_year': 2050, 'exact': 3, 'start_year': 1983};{'end_year': 20, 'exact': 0, 'start_year': 20};{'end_year': 'make_Attrib(const)', 'exact': 'make_Attrib(const)', 'start_year': 'make_Attrib(const)'};{}
INET_IP_87;Raeren;['INET_IP_87'];['SEQ_11600_p'];50.70096;6.21729;BE;None;{'end_year': 2050, 'exact': 3, 'start_year': 1983};{'end_year': 20, 'exact': 0, 'start_year': 20};{'end_year': 'make_Attrib(const)', 'exact': 'make_Attrib(const)', 'start_year': 'make_Attrib(const)'};{}
INET_IP_88;Remich;['INET_IP_88'];['SEQ_11936_p'];49.53427;6.39846;DE;None;{'end_year': 2050, 'exact': 3, 'start_year': 1983};{'end_year': 20, 'exact': 0, 'start_year': 20};{'end_year': 'make_Attrib(const)', 'exact': 'make_Attrib(const)', 'start_year': 'make_Attrib(const)'};{}
INET_IP_89;Rogatec;['INET_IP_89'];['SEQ_8359_p'];46.23421;15.67228;SI;None;{'end_year': 2050, 'exact': 3, 'start_year': 1983};{'end_year': 20, 'exact': 0, 'start_year': 20};{'end_year': 'make_Attrib(const)', 'exact': 'make_Attrib(const)', 'start_year': 'make_Attrib(const)'};{}
INET_IP_90;Sakiai;['INET_IP_90'];['N_993_S_LMGN'];54.94789;23.06017;LT;None;{'end_year': 2050, 'exact': 3, 'start_year': 1983};{'end_year': 20, 'exact': 0, 'start_year': 20};{'end_year': 'make_Attrib(const)', 'exact': 'make_Attrib(const)', 'start_year': 'make_Attrib(const)'};{}
INET_IP_91;Sempeter;['INET_IP_91'];['SEQ_10633__M_LMGN'];45.93941;13.65387;SI;None;{'end_year': 2050, 'exact': 3, 'start_year': 1983};{'end_year': 20, 'exact': 0, 'start_year': 20};{'end_year': 'make_Attrib(const)', 'exact': 'make_Attrib(const)', 'start_year': 'make_Attrib(const)'};{}
INET_IP_92;Sidirokastron;['INET_IP_92'];['SEQ_1785_p'];41.08296;23.38269;GR;None;{'end_year': 2050, 'exact': 3, 'start_year': 1983};{'end_year': 20, 'exact': 0, 'start_year': 20};{'end_year': 'make_Attrib(const)', 'exact': 'make_Attrib(const)', 'start_year': 'make_Attrib(const)'};{}
INET_IP_93;Silistea;['INET_IP_93'];['SEQ_2415_p'];44.35541;28.14808;RO;None;{'end_year': 2050, 'exact': 3, 'start_year': 1983};{'end_year': 20, 'exact': 0, 'start_year': 20};{'end_year': 'make_Attrib(const)', 'exact': 'make_Attrib(const)', 'start_year': 'make_Attrib(const)'};{}
INET_IP_94;Strandja;['INET_IP_94'];['INET_N_1432'];42.1825;27.00861;BG;Srtandszha;{'end_year': 2050, 'exact': 3, 'start_year': 1983};{'end_year': 20, 'exact': 0, 'start_year': 20};{'end_year': 'make_Attrib(const)', 'exact': 'make_Attrib(const)', 'start_year': 'make_Attrib(const)'};{}
INET_IP_95;Takovo;['INET_IP_95'];['N_801_S_LMGN'];44.0421;20.38581;RS;None;{'end_year': 2050, 'exact': 3, 'start_year': 1983};{'end_year': 20, 'exact': 0, 'start_year': 20};{'end_year': 'make_Attrib(const)', 'exact': 'make_Attrib(const)', 'start_year': 'make_Attrib(const)'};{}
INET_IP_96;Tarvisio;['INET_IP_96'];['INET_N_1469'];46.50553;13.59281;IT;None;{'end_year': 2050, 'exact': 3, 'start_year': 1983};{'end_year': 20, 'exact': 0, 'start_year': 20};{'end_year': 'make_Attrib(const)', 'exact': 'make_Attrib(const)', 'start_year': 'make_Attrib(const)'};{}
INET_IP_97;Trzac;['INET_IP_97'];['SEQ_312_p'];44.76112;15.3727;BA;None;{'end_year': 2050, 'exact': 3, 'start_year': 1983};{'end_year': 20, 'exact': 0, 'start_year': 20};{'end_year': 'make_Attrib(const)', 'exact': 'make_Attrib(const)', 'start_year': 'make_Attrib(const)'};{}
INET_IP_98;Tuy;['INET_IP_98'];['SEQ_2449_p'];42.20975;-8.57419;ES;None;{'end_year': 2050, 'exact': 3, 'start_year': 1983};{'end_year': 20, 'exact': 0, 'start_year': 20};{'end_year': 'make_Attrib(const)', 'exact': 'make_Attrib(const)', 'start_year': 'make_Attrib(const)'};{}
INET_IP_99;Ueberackern;['INET_IP_99'];['N_2631_S_LMGN'];48.19149;12.86101;AT;None;{'end_year': 2050, 'exact': 3, 'start_year': 1983};{'end_year': 20, 'exact': 0, 'start_year': 20};{'end_year': 'make_Attrib(const)', 'exact': 'make_Attrib(const)', 'start_year': 'make_Attrib(const)'};{}
INET_IP_100;Umag Rijeka;['INET_IP_100'];['N_515_S_LMGN'];45.62397;13.82506;HR;None;{'end_year': 2050, 'exact': 3, 'start_year': 1983};{'end_year': 20, 'exact': 0, 'start_year': 20};{'end_year': 'make_Attrib(const)', 'exact': 'make_Attrib(const)', 'start_year': 'make_Attrib(const)'};{}
INET_IP_101;Uzhgorod;['INET_IP_101'];['SEQ_5829__L_LMGN'];48.61535;22.43117;UA;None;{'end_year': 2050, 'exact': 3, 'start_year': 1983};{'end_year': 20, 'exact': 0, 'start_year': 20};{'end_year': 'make_Attrib(const)', 'exact': 'make_Attrib(const)', 'start_year': 'make_Attrib(const)'};{}
INET_IP_102;Vale De Frades;['INET_IP_102'];['SEQ_835_p'];41.69868;-5.68503;PT;None;{'end_year': 2050, 'exact': 3, 'start_year': 1983};{'end_year': 20, 'exact': 0, 'start_year': 20};{'end_year': 'make_Attrib(const)', 'exact': 'make_Attrib(const)', 'start_year': 'make_Attrib(const)'};{}
INET_IP_103;Valenca Do Minho;['INET_IP_103'];['SEQ_2448_p'];42.02064;-8.59299;PT;None;{'end_year': 2050, 'exact': 3, 'start_year': 1983};{'end_year': 20, 'exact': 0, 'start_year': 20};{'end_year': 'make_Attrib(const)', 'exact': 'make_Attrib(const)', 'start_year': 'make_Attrib(const)'};{}
INET_IP_104;Varska;['INET_IP_104'];['SEQ_2107_p'];57.89527;27.46244;EE;None;{'end_year': 2050, 'exact': 3, 'start_year': 1983};{'end_year': 20, 'exact': 0, 'start_year': 20};{'end_year': 'make_Attrib(const)', 'exact': 'make_Attrib(const)', 'start_year': 'make_Attrib(const)'};{}
INET_IP_105;Vodice;['INET_IP_105'];['SEQ_10647__M_LMGN'];46.12777;14.56291;SI;None;{'end_year': 2050, 'exact': 3, 'start_year': 1983};{'end_year': 20, 'exact': 0, 'start_year': 20};{'end_year': 'make_Attrib(const)', 'exact': 'make_Attrib(const)', 'start_year': 'make_Attrib(const)'};{}
INET_IP_106;Vyborg;['INET_IP_106'];['SEQ_1613_p'];60.70369;28.59571;RU;None;{'end_year': 2050, 'exact': 3, 'start_year': 1983};{'end_year': 20, 'exact': 0, 'start_year': 20};{'end_year': 'make_Attrib(const)', 'exact': 'make_Attrib(const)', 'start_year': 'make_Attrib(const)'};{}
INET_IP_107;Waidhaus;['INET_IP_107'];['SEQ_11585_p'];49.66191;12.44549;DE;None;{'end_year': 2050, 'exact': 3, 'start_year': 1983};{'end_year': 20, 'exact': 0, 'start_year': 20};{'end_year': 'make_Attrib(const)', 'exact': 'make_Attrib(const)', 'start_year': 'make_Attrib(const)'};{}
INET_IP_108;Wallbach;['INET_IP_108'];['INET_N_472'];47.5708;7.8072;DE;None;{'end_year': 2050, 'exact': 3, 'start_year': 1983};{'end_year': 20, 'exact': 0, 'start_year': 20};{'end_year': 'make_Attrib(const)', 'exact': 'make_Attrib(const)', 'start_year': 'make_Attrib(const)'};{}
INET_IP_109;Winterswijk;['INET_IP_109'];['LKD_N_39'];51.98283;6.81851;DE;None;{'end_year': 2050, 'exact': 3, 'start_year': 1983};{'end_year': 20, 'exact': 0, 'start_year': 20};{'end_year': 'make_Attrib(const)', 'exact': 'make_Attrib(const)', 'start_year': 'make_Attrib(const)'};{}
INET_IP_110;Wysokoje;['INET_IP_110'];['SEQ_1628_p'];52.35832;23.26215;BY;None;{'end_year': 2050, 'exact': 3, 'start_year': 1983};{'end_year': 20, 'exact': 0, 'start_year': 20};{'end_year': 'make_Attrib(const)', 'exact': 'make_Attrib(const)', 'start_year': 'make_Attrib(const)'};{}
INET_IP_111;Zajecar;['INET_IP_111'];['N_301_S_LMGN'];43.89872;21.50359;RS;None;{'end_year': 2050, 'exact': 3, 'start_year': 1983};{'end_year': 20, 'exact': 0, 'start_year': 20};{'end_year': 'make_Attrib(const)', 'exact': 'make_Attrib(const)', 'start_year': 'make_Attrib(const)'};{}
INET_IP_112;Zandvliet;['INET_IP_112'];['N_791_S_LMGN'];51.34212;4.15428;BE;None;{'end_year': 2050, 'exact': 3, 'start_year': 1983};{'end_year': 20, 'exact': 0, 'start_year': 20};{'end_year': 'make_Attrib(const)', 'exact': 'make_Attrib(const)', 'start_year': 'make_Attrib(const)'};{}
INET_IP_113;Zeebrugge;['INET_IP_113'];['INET_N_1658'];51.326;3.19745;BE;None;{'end_year': 2050, 'exact': 3, 'start_year': 1983};{'end_year': 20, 'exact': 0, 'start_year': 20};{'end_year': 'make_Attrib(const)', 'exact': 'make_Attrib(const)', 'start_year': 'make_Attrib(const)'};{}
INET_IP_114;Zelzate;['INET_IP_114'];['SEQ_7813__M_LMGN'];51.21043;3.86892;BE;None;{'end_year': 2050, 'exact': 3, 'start_year': 1983};{'end_year': 20, 'exact': 0, 'start_year': 20};{'end_year': 'make_Attrib(const)', 'exact': 'make_Attrib(const)', 'start_year': 'make_Attrib(const)'};{}
INET_IP_115;Zweekhorst;['INET_IP_115'];['SEQ_719__L_LMGN'];51.96088;6.11463;NL;None;{'end_year': 2050, 'exact': 3, 'start_year': 1983};{'end_year': 20, 'exact': 0, 'start_year': 20};{'end_year': 'make_Attrib(const)', 'exact': 'make_Attrib(const)', 'start_year': 'make_Attrib(const)'};{}
INET_IP_116;Zhidilovo;['INET_IP_116'];['INET_N_1661'];42.22425;22.3986;MK;None;{'end_year': 2050, 'exact': 3, 'start_year': 1983};{'end_year': 20, 'exact': 0, 'start_year': 20};{'end_year': 'make_Attrib(const)', 'exact': 'make_Attrib(const)', 'start_year': 'make_Attrib(const)'};{}
INET_IP_117;Meric Nehri;['INET_IP_117'];['INET_N_952'];40.97174;26.30945;GR;None;{'end_year': 2050, 'exact': 3, 'start_year': 1983};{'end_year': 20, 'exact': 0, 'start_year': 20};{'end_year': 'make_Attrib(const)', 'exact': 'make_Attrib(const)', 'start_year': 'make_Attrib(const)'};{}
